index_cafeteria,cafeteria_name,label,cafeteria_type_orignal,label_zero-shot,img,Latitude,Longitude,openTime,closeTime,소재지전체주소,인허가일자,영업상태구분코드,시설총규모,최종수정시점,시/도,구/군,동/면,상세주소
11667,호반푸드,고기/구이,식육(숯불구이),기타,https://search.pstatic.net/common/?autoRotate=true&quality=95&type=w750&src=https%3A%2F%2Fldb-phinf.pstatic.net%2F20220327_157%2F1648341996870tvlxH_JPEG%2F%25C8%25A3%25B9%25DD%25C7%25AA%25B5%25E5.jpg,37.8496698,127.7501828,,,강원특별자치도 춘천시 석사동 913-3,2020-12-21,1,107,2022-01-20 9:49:05,강원특별자치도,춘천시,석사동,913-3
8814,미고토국물닭발,고기/구이,식육(숯불구이),기타,https://search.pstatic.net/common/?autoRotate=true&quality=95&type=w750&src=https%3A%2F%2Fldb-phinf.pstatic.net%2F20230112_22%2F1673518106322EhrRF_JPEG%2FKakaoTalk_20230111_181325102.jpg,37.8756525,127.7365044,,,강원특별자치도 춘천시 효자동 648-2,2000-09-30,1,41.64,2022-10-25 11:38:24,강원특별자치도,춘천시,효자동,648-2
10443,돈우정,고기/구이,한식,고기/구이,https://search.pstatic.net/common/?autoRotate=true&quality=95&type=w750&src=https%3A%2F%2Fldb-phinf.pstatic.net%2F20230903_288%2F16936692947315j1R7_JPEG%2F%25B5%25B7%25BF%25EC%25C1%25A41.jpg,37.8480663,127.7534874,,,강원특별자치도 춘천시 석사동 966-3,2023-05-01,1,120.62,2023-05-23 13:42:43,강원특별자치도,춘천시,석사동,966-3
7727,효자황태구이,고기/구이,한식,백반,https://search.pstatic.net/common/?autoRotate=true&type=w560_sharpen&src=https%3A%2F%2Fldb-phinf.pstatic.net%2F20150831_221%2F1440987084198ulNxH_JPEG%2F11865319_0.jpg,37.865992,127.7311247,,,강원특별자치도 춘천시 효자동 705-18 (1~2층),2005-04-28,1,165.9,2021-04-12 10:26:30,강원특별자치도,춘천시,효자동,705-18 (1~2층)
8886,운수대통닭갈비,고기/구이,한식,고기/구이,https://search.pstatic.net/common/?autoRotate=true&type=w560_sharpen&src=https%3A%2F%2Fldb-phinf.pstatic.net%2F20150831_236%2F1440995048865uojMM_JPEG%2F11549268_0.jpg,37.8737783,127.7432229,,,강원특별자치도 춘천시 효자동 626-18,1996-04-16,1,41.48,2022-06-30 7:12:35,강원특별자치도,춘천시,효자동,626-18
7961,청미래닭갈비,고기/구이,한식,치킨,https://search.pstatic.net/common/?autoRotate=true&type=w560_sharpen&src=https%3A%2F%2Fldb-phinf.pstatic.net%2F20150831_245%2F1440988371437kJDRX_JPEG%2F11868683_0.jpg,37.8731722,127.7453364,,,강원특별자치도 춘천시 효자동 631-16,2003-02-06,1,0,2022-02-07 10:25:51,강원특별자치도,춘천시,효자동,631-16
9063,참맛부흥닭갈비,고기/구이,한식,기타,https://search.pstatic.net/common/?autoRotate=true&type=w560_sharpen&src=https%3A%2F%2Fldb-phinf.pstatic.net%2F20150901_188%2F1441047503827ICdtb_JPEG%2F11823756_0.jpg,37.8739439,127.7432727,,,강원특별자치도 춘천시 효자동 625-5,1999-06-29,1,49.4,2022-02-07 9:28:29,강원특별자치도,춘천시,효자동,625-5
8788,강대곱창타운,고기/구이,호프/통닭,분식,https://search.pstatic.net/common/?autoRotate=true&type=w560_sharpen&src=https%3A%2F%2Fldb-phinf.pstatic.net%2F20150903_259%2F1441244226439sKwnf_JPEG%2F166779405551118_0.jpeg,37.87329,127.7441973,,,강원특별자치도 춘천시 효자동 628-12,1995-12-19,1,74.2,2022-01-19 13:19:39,강원특별자치도,춘천시,효자동,628-12
8888,이모네돼지갈비부속구이,고기/구이,호프/통닭,기타,https://search.pstatic.net/common/?autoRotate=true&type=w560_sharpen&src=https%3A%2F%2Fldb-phinf.pstatic.net%2F20161107_216%2F1478486074213rX1Yl_JPEG%2F177057516454066_0.jpeg,37.8668627,127.7520716,,,강원특별자치도 춘천시 석사동 737-8,2001-03-21,1,75.6,2022-02-07 9:46:57,강원특별자치도,춘천시,석사동,737-8
9851,다릿골소나무,고기/구이,식육(숯불구이),고기/구이,https://search.pstatic.net/common/?autoRotate=true&type=w560_sharpen&src=https%3A%2F%2Fldb-phinf.pstatic.net%2F20161124_243%2F14799525695843B0ru_JPEG%2F177074508629.,37.8654063,127.753586,,,강원특별자치도 춘천시 석사동 733-18,2011-11-14,1,53.43,2012-04-06 10:02:51,강원특별자치도,춘천시,석사동,733-18
8580,륭림닭발1호점,고기/구이,기타,회,https://search.pstatic.net/common/?autoRotate=true&type=w560_sharpen&src=https%3A%2F%2Fldb-phinf.pstatic.net%2F20161207_45%2F1481090252063xzck1_PNG%2Fimage.,37.8738188,127.74163,,,"강원특별자치도 춘천시 효자동 617-9 (3동,1층)",2007-10-24,1,83.78,2022-12-22 16:48:15,강원특별자치도,춘천시,효자동,"617-9 (3동,1층)"
9990,부산산꼼장어,고기/구이,기타,고기/구이,https://search.pstatic.net/common/?autoRotate=true&type=w560_sharpen&src=https%3A%2F%2Fldb-phinf.pstatic.net%2F20170207_282%2F1486442277962bmqA4_JPEG%2F186157536777.jpg,37.8661263,127.7525467,,,강원특별자치도 춘천시 석사동 735-11,2010-08-25,1,113.01,2018-12-20 17:14:55,강원특별자치도,춘천시,석사동,735-11
11453,형제육회,고기/구이,식육(숯불구이),기타,https://search.pstatic.net/common/?autoRotate=true&type=w560_sharpen&src=https%3A%2F%2Fldb-phinf.pstatic.net%2F20170406_205%2F14914398041594RALi_PNG%2F_2.png,37.8482667,127.7512599,,,강원특별자치도 춘천시 석사동 949-3,2014-09-02,1,114.26,2022-01-19 14:41:27,강원특별자치도,춘천시,석사동,949-3
9194,내린천,고기/구이,호프/통닭,고기/구이,https://search.pstatic.net/common/?autoRotate=true&type=w560_sharpen&src=https%3A%2F%2Fldb-phinf.pstatic.net%2F20170419_276%2F14925832698249U5gh_JPEG%2F6.jpg,37.8604207,127.7434041,,,강원특별자치도 춘천시 석사동 640-8,2001-06-27,1,120.9,2021-04-11 22:34:28,강원특별자치도,춘천시,석사동,640-8
8225,소양강숯불오리,고기/구이,한식,회,https://search.pstatic.net/common/?autoRotate=true&type=w560_sharpen&src=https%3A%2F%2Fldb-phinf.pstatic.net%2F20170422_269%2F1492840277877Ylp3R_JPEG%2F186372548137530_0.jpg,37.8715436,127.7264579,,,강원특별자치도 춘천시 효자동 547,2002-04-22,1,65.43,2011-11-24 10:40:34,강원특별자치도,춘천시,효자동,547
11266,유명한맛돼지,고기/구이,식육(숯불구이),고기/구이,https://search.pstatic.net/common/?autoRotate=true&type=w560_sharpen&src=https%3A%2F%2Fldb-phinf.pstatic.net%2F20170512_199%2F14945715106060FDD2_JPEG%2F186462557530_0.jpg,37.8510512,127.7452246,,,강원특별자치도 춘천시 석사동 888-5,2016-08-24,1,142.55,2022-02-07 17:33:22,강원특별자치도,춘천시,석사동,888-5
9093,퇴계골,고기/구이,한식,고기/구이,https://search.pstatic.net/common/?autoRotate=true&type=w560_sharpen&src=https%3A%2F%2Fldb-phinf.pstatic.net%2F20170515_175%2F14948090040663dy0l_JPEG%2F20170504_0950221.jpg,37.8488972,127.7510086,,,강원특별자치도 춘천시 석사동 921-5 (1층),1997-03-10,1,103.05,2021-12-19 16:45:10,강원특별자치도,춘천시,석사동,921-5 (1층)
8491,삼락,고기/구이,한식,고기/구이,https://search.pstatic.net/common/?autoRotate=true&type=w560_sharpen&src=https%3A%2F%2Fldb-phinf.pstatic.net%2F20170530_7%2F1496121226355yuJYA_JPEG%2F186480544363.jpg,37.8612836,127.7427276,,,강원특별자치도 춘천시 석사동 639-5,2005-12-09,1,147.72,2017-11-28 17:31:16,강원특별자치도,춘천시,석사동,639-5
9337,신마포갈매기(강원대점),고기/구이,식육(숯불구이),양식,https://search.pstatic.net/common/?autoRotate=true&type=w560_sharpen&src=https%3A%2F%2Fldb-phinf.pstatic.net%2F20170607_291%2F1496808327491xMaB6_JPEG%2F1.jpg,37.873279,127.7416663,,,강원특별자치도 춘천시 효자동 767-2,2001-09-14,1,105.44,2022-02-07 9:45:13,강원특별자치도,춘천시,효자동,767-2
8015,미도숯불갈비,고기/구이,식육(숯불구이),고기/구이,https://search.pstatic.net/common/?autoRotate=true&type=w560_sharpen&src=https%3A%2F%2Fldb-phinf.pstatic.net%2F20170922_140%2F1506053533488cGyiG_JPEG%2Fk1qV_ViDdaJlY73l1Os6P4SI.jpg,37.8719329,127.7335917,,,"강원특별자치도 춘천시 효자동 665-6 (1층,2동)",2007-10-15,1,45.36,2022-11-04 10:08:48,강원특별자치도,춘천시,효자동,"665-6 (1층,2동)"
9031,윤일닭갈비,고기/구이,한식,기타,https://search.pstatic.net/common/?autoRotate=true&type=w560_sharpen&src=https%3A%2F%2Fldb-phinf.pstatic.net%2F20171023_139%2F15087408297223vCY6_JPEG%2FxRz675PNqSAJidKzB8GNbZdt.jpg,37.863484,127.7352216,,,강원특별자치도 춘천시 효자동 250-22 1층,1991-08-05,1,78.53,2022-01-19 11:30:03,강원특별자치도,춘천시,효자동,250-22 1층
9305,진미닭갈비본점,고기/구이,한식,고기/구이,https://search.pstatic.net/common/?autoRotate=true&type=w560_sharpen&src=https%3A%2F%2Fldb-phinf.pstatic.net%2F20171114_285%2F1510642986823gDemQ_JPEG%2F2f_hfQipQNrfO8Po3TGw8wGV.jpg,37.8681763,127.7367037,,,강원특별자치도 춘천시 효자동 174-59,1996-06-21,1,89.52,2013-01-16 9:19:41,강원특별자치도,춘천시,효자동,174-59
8095,청솔한우,고기/구이,식육(숯불구이),기타,https://search.pstatic.net/common/?autoRotate=true&type=w560_sharpen&src=https%3A%2F%2Fldb-phinf.pstatic.net%2F20171212_160%2F15130505069352Lm29_JPEG%2F_l-JmoOpoBm8lVo-1K1o3wkn.jpg,37.8665878,127.751501,,,강원특별자치도 춘천시 석사동 740-1 (1층),2010-12-14,1,102.72,2017-11-28 14:55:42,강원특별자치도,춘천시,석사동,740-1 (1층)
9407,시민닭갈비,고기/구이,한식,기타,https://search.pstatic.net/common/?autoRotate=true&type=w560_sharpen&src=https%3A%2F%2Fldb-phinf.pstatic.net%2F20171218_170%2F1513562275463fJXok_JPEG%2FPhXeRIXkG8YQNVrdJzBmKe9z.jpg,37.8615897,127.7418298,,,강원특별자치도 춘천시 석사동 696-7,1979-05-26,1,0,2022-01-13 17:02:30,강원특별자치도,춘천시,석사동,696-7
12295,고기촌,고기/구이,식육(숯불구이),기타,https://search.pstatic.net/common/?autoRotate=true&type=w560_sharpen&src=https%3A%2F%2Fldb-phinf.pstatic.net%2F20171220_188%2F1513758974300GHi60_JPEG%2FzY9rSnvsaff8xcZey3qh0nI8.jpg,37.8601919,127.7427812,,,강원특별자치도 춘천시 석사동 644-6,2017-07-21,1,57,2022-02-07 16:07:07,강원특별자치도,춘천시,석사동,644-6
11771,숨어있는고깃집,고기/구이,한식,기타,https://search.pstatic.net/common/?autoRotate=true&type=w560_sharpen&src=https%3A%2F%2Fldb-phinf.pstatic.net%2F20180727_184%2F1532689887332klJiv_JPEG%2Fjb0uMd8C7DV3WhKSADAalilz.jpeg.jpg,37.8727881,127.7454301,,,강원특별자치도 춘천시 효자동 632-11,2018-05-31,1,99.52,2021-12-18 17:54:08,강원특별자치도,춘천시,효자동,632-11
8871,먹촌가,고기/구이,한식,기타,https://search.pstatic.net/common/?autoRotate=true&type=w560_sharpen&src=https%3A%2F%2Fldb-phinf.pstatic.net%2F20181221_38%2F1545357127583VakBS_JPEG%2FZ2mDtyxmeJCxWFXxXXdoKmcB.jpg,37.8597116,127.7426083,,,강원특별자치도 춘천시 석사동 642,2002-03-04,1,43.46,2022-02-07 9:56:12,강원특별자치도,춘천시,석사동,642
11427,만보네,고기/구이,한식,기타,https://search.pstatic.net/common/?autoRotate=true&type=w560_sharpen&src=https%3A%2F%2Fldb-phinf.pstatic.net%2F20181223_104%2F15455491832205u1Ud_JPEG%2FmHlZsDCQp2s9KN8GbtL52W0i.jpg,37.8759017,127.7433356,,,강원특별자치도 춘천시 효자동 18-104,2015-07-14,1,79.76,2023-03-16 8:56:57,강원특별자치도,춘천시,효자동,18-104
9603,온돌집,고기/구이,한식,고기/구이,https://search.pstatic.net/common/?autoRotate=true&type=w560_sharpen&src=https%3A%2F%2Fldb-phinf.pstatic.net%2F20181223_122%2F1545524403985lsumX_JPEG%2FLe3cDzMs9o6ls6LzHLPhPeh4.jpg,37.8532096,127.7469284,,,강원특별자치도 춘천시 석사동 840-7,2009-03-19,1,90.48,2017-11-30 18:06:25,강원특별자치도,춘천시,석사동,840-7
9230,니하오양꼬치,고기/구이,식육(숯불구이),분식,https://search.pstatic.net/common/?autoRotate=true&type=w560_sharpen&src=https%3A%2F%2Fldb-phinf.pstatic.net%2F20181224_15%2F1545604071744NVlQL_JPEG%2F9O4GftYpPtmItifdwf-hVp9l.jpg,37.867017,127.7522447,,,"강원특별자치도 춘천시 석사동 737-6 ,7",2001-07-27,1,36.9,2020-07-22 14:33:54,강원특별자치도,춘천시,석사동,"737-6 ,7"
10848,초빈닭갈비,고기/구이,한식,기타,https://search.pstatic.net/common/?autoRotate=true&type=w560_sharpen&src=https%3A%2F%2Fldb-phinf.pstatic.net%2F20181224_57%2F1545634415106aIcSO_JPEG%2FuVm7uV9LPhguALxYO27b8uAd.jpg,37.8663076,127.7525097,,,강원특별자치도 춘천시 석사동 735-13,2016-09-22,1,118.78,2018-01-16 10:38:09,강원특별자치도,춘천시,석사동,735-13
9809,쭌이네생모듬구이,고기/구이,한식,고기/구이,https://search.pstatic.net/common/?autoRotate=true&type=w560_sharpen&src=https%3A%2F%2Fldb-phinf.pstatic.net%2F20181225_176%2F1545732069191xaO9y_JPEG%2F5NheAPllh9j1X9wrZgDixa6X.jpg,37.8662365,127.7530384,,,강원특별자치도 춘천시 석사동 734-15,2013-03-11,1,55.03,2022-01-19 13:45:27,강원특별자치도,춘천시,석사동,734-15
9440,삼겹천하,고기/구이,한식,고기/구이,https://search.pstatic.net/common/?autoRotate=true&type=w560_sharpen&src=https%3A%2F%2Fldb-phinf.pstatic.net%2F20181225_72%2F1545738415694EUsiC_JPEG%2FM3gkEmCal5XanIVVNWYHTwRB.jpg,37.8658947,127.7520466,,,강원특별자치도 춘천시 석사동 742-17,1998-06-29,1,67.94,2012-01-31 11:31:51,강원특별자치도,춘천시,석사동,742-17
8607,황소돌곱창구이,고기/구이,한식,고기/구이,https://search.pstatic.net/common/?autoRotate=true&type=w560_sharpen&src=https%3A%2F%2Fldb-phinf.pstatic.net%2F20190102_261%2F1546435825418HQw7r_JPEG%2F95sECq8sF7e2H8SBkrYRHRev.jpg,37.865527,127.7509655,,,강원특별자치도 춘천시 석사동 749-1,2000-06-08,1,55.7,2023-06-19 18:05:09,강원특별자치도,춘천시,석사동,749-1
9546,가마솥통닭,고기/구이,식육(숯불구이),고기/구이,https://search.pstatic.net/common/?autoRotate=true&type=w560_sharpen&src=https%3A%2F%2Fldb-phinf.pstatic.net%2F20190105_262%2F1546697160219zi6jX_JPEG%2FKlKI7LScMwoXXHsDjuCTBWbZ.jpg,37.8576932,127.7446452,,,강원특별자치도 춘천시 석사동 667-5 (1층),2010-07-06,1,36.72,2014-06-10 16:33:15,강원특별자치도,춘천시,석사동,667-5 (1층)
11136,꼴두바우강대점,고기/구이,식육(숯불구이),국수,https://search.pstatic.net/common/?autoRotate=true&type=w560_sharpen&src=https%3A%2F%2Fldb-phinf.pstatic.net%2F20190107_144%2F1546835605761mRJ3X_JPEG%2Fx7jM-UoqolosBgmAEb3rjRdu.jpg,37.8743304,127.7424035,,,강원특별자치도 춘천시 효자동 619-8 1층,2014-07-31,1,78.96,2023-05-26 16:14:02,강원특별자치도,춘천시,효자동,619-8 1층
8593,봉수닭갈비,고기/구이,식육(숯불구이),고기/구이,https://search.pstatic.net/common/?autoRotate=true&type=w560_sharpen&src=https%3A%2F%2Fldb-phinf.pstatic.net%2F20190107_175%2F1546839634098ntyJE_JPEG%2FjFj2KJGFYiWhS0IqNOgCuV0g.jpg,37.8735516,127.7435168,,,강원특별자치도 춘천시 효자동 626-14 1층,1993-10-15,1,51.03,2015-12-18 16:21:33,강원특별자치도,춘천시,효자동,626-14 1층
8609,꼴두바우애막골점,고기/구이,한식,국수,https://search.pstatic.net/common/?autoRotate=true&type=w560_sharpen&src=https%3A%2F%2Fldb-phinf.pstatic.net%2F20190109_169%2F1547043083769hn4Y3_JPEG%2FIFSfLU1HNZzuCPZsyuk26E_h.jpg,37.8666326,127.7531178,,,강원특별자치도 춘천시 석사동 735-5,2000-07-07,1,42.74,2022-01-21 17:53:51,강원특별자치도,춘천시,석사동,735-5
8894,조개본능,고기/구이,식육(숯불구이),회,https://search.pstatic.net/common/?autoRotate=true&type=w560_sharpen&src=https%3A%2F%2Fldb-phinf.pstatic.net%2F20190110_183%2F1547090995992uNWi4_JPEG%2FWZtVDZmX8fj8pjCyaf3KShbQ.jpeg.jpg,37.8667076,127.7518979,,,강원특별자치도 춘천시 석사동 737-10,2001-04-26,1,43.68,2021-12-19 16:51:18,강원특별자치도,춘천시,석사동,737-10
7633,원조신토불이,고기/구이,한식,찜/탕/찌개,https://search.pstatic.net/common/?autoRotate=true&type=w560_sharpen&src=https%3A%2F%2Fldb-phinf.pstatic.net%2F20190110_230%2F1547047980241jSpQP_JPEG%2FtZFDp8vpkRceyPc26wo-TZY1.jpg,37.8671482,127.755025,,,강원특별자치도 춘천시 석사동 726-5,2003-06-27,1,88.86,2013-03-12 10:46:59,강원특별자치도,춘천시,석사동,726-5
9320,꼬꼬랑꼬치랑,고기/구이,통닭(치킨),치킨,https://search.pstatic.net/common/?autoRotate=true&type=w560_sharpen&src=https%3A%2F%2Fldb-phinf.pstatic.net%2F20190110_6%2F1547047886016lk1pQ_JPEG%2FkjH3CQftNAfSRcQS8mnnE6bX.jpg,37.8671482,127.754883,,,강원특별자치도 춘천시 석사동 726-6,1998-12-24,1,75.46,2021-08-03 22:16:30,강원특별자치도,춘천시,석사동,726-6
9585,왕가마솥뚜껑,고기/구이,한식,국수,https://search.pstatic.net/common/?autoRotate=true&type=w560_sharpen&src=https%3A%2F%2Fldb-phinf.pstatic.net%2F20190112_180%2F1547276490786TtmrO_JPEG%2Fzbi-d7fQiEg9Zz2UYNsOqPn3.jpg,37.8537217,127.74734,,,강원특별자치도 춘천시 석사동 832-7,2003-04-30,1,84.48,2023-06-08 14:41:08,강원특별자치도,춘천시,석사동,832-7
9006,공지천왕갈비(애막골점),고기/구이,식육(숯불구이),고기/구이,https://search.pstatic.net/common/?autoRotate=true&type=w560_sharpen&src=https%3A%2F%2Fldb-phinf.pstatic.net%2F20190112_56%2F1547246221765TmWAC_JPEG%2FJCTVdNoUI8quRCf6BQXs0i14.jpg,37.865733,127.7518653,,,강원특별자치도 춘천시 석사동 742-15,2001-07-16,1,97.97,2013-03-04 10:25:13,강원특별자치도,춘천시,석사동,742-15
9236,청평미가,고기/구이,한식,고기/구이,https://search.pstatic.net/common/?autoRotate=true&type=w560_sharpen&src=https%3A%2F%2Fldb-phinf.pstatic.net%2F20190114_13%2F1547466012681F5Cwy_JPEG%2FaHN4BtVFrguCLWTumVVOykTw.jpg,37.8584903,127.7427145,,,강원특별자치도 춘천시 석사동 669-13 1층,1999-05-10,1,85.86,2021-10-18 14:20:35,강원특별자치도,춘천시,석사동,669-13 1층
8020,소림생고기,고기/구이,식육(숯불구이),고기/구이,https://search.pstatic.net/common/?autoRotate=true&type=w560_sharpen&src=https%3A%2F%2Fldb-phinf.pstatic.net%2F20190118_144%2F1547754690332xCkng_JPEG%2Fvhh2xWouE-PaBEv3WXBZSe7f.jpg,37.8793121,127.7406315,,,강원특별자치도 춘천시 효자동 756,2007-11-13,1,84.58,2022-02-07 13:34:45,강원특별자치도,춘천시,효자동,756
8202,석사돌삼겹,고기/구이,식육(숯불구이),기타,https://search.pstatic.net/common/?autoRotate=true&type=w560_sharpen&src=https%3A%2F%2Fldb-phinf.pstatic.net%2F20190124_128%2F1548312577277UFyqH_JPEG%2FrOso_Eg9ShIaaUDbCThF-X2c.jpg,37.8610504,127.7414785,,,강원특별자치도 춘천시 석사동 697-4 (1층),2010-06-04,1,46.56,2019-09-11 9:39:48,강원특별자치도,춘천시,석사동,697-4 (1층)
8598,원앙닭갈비,고기/구이,한식,고기/구이,https://search.pstatic.net/common/?autoRotate=true&type=w560_sharpen&src=https%3A%2F%2Fldb-phinf.pstatic.net%2F20190320_249%2F1553053780788KRwgf_JPEG%2F1FvuJ1Sij1ENZPvM0VGw2N_b.jpg,37.8616826,127.7415448,,,강원특별자치도 춘천시 석사동 696-5,1994-10-08,1,96.9,2013-04-04 13:21:36,강원특별자치도,춘천시,석사동,696-5
10676,산천어춘천닭갈비,고기/구이,한식,기타,https://search.pstatic.net/common/?autoRotate=true&type=w560_sharpen&src=https%3A%2F%2Fldb-phinf.pstatic.net%2F20190528_145%2F15590267770528Tgo9_JPEG%2FUze_FAE8TtMyLPkfUbjsUw8X.jpg,37.8743953,127.7348612,,,강원특별자치도 춘천시 효자동 100-3,2019-04-30,1,75.31,2022-04-14 9:36:56,강원특별자치도,춘천시,효자동,100-3
9540,찍찍이네,고기/구이,호프/통닭,기타,https://search.pstatic.net/common/?autoRotate=true&type=w560_sharpen&src=https%3A%2F%2Fldb-phinf.pstatic.net%2F20190601_243%2F1559385107642Eg5SR_JPEG%2F9ZNo1rEyHfbYfYVm2UPeM3Br.jpg,37.8660309,127.7533879,,,강원특별자치도 춘천시 석사동 732-17 (1층),2003-11-28,1,95.98,2021-04-19 10:21:29,강원특별자치도,춘천시,석사동,732-17 (1층)
9583,스푼,고기/구이,한식,고기/구이,https://search.pstatic.net/common/?autoRotate=true&type=w560_sharpen&src=https%3A%2F%2Fldb-phinf.pstatic.net%2F20190604_88%2F1559644970170JsHe3_JPEG%2FsqhQGjXKyHyLywZHKQFUWoNy.jpg,37.8745988,127.7431512,,,"강원특별자치도 춘천시 효자동 20-14 ,21-3,63-52(3동)",2002-10-24,1,97.34,2023-09-26 15:24:58,강원특별자치도,춘천시,효자동,"20-14 ,21-3,63-52(3동)"
9404,비와별닭갈비애막골점,고기/구이,식육(숯불구이),고기/구이,https://search.pstatic.net/common/?autoRotate=true&type=w560_sharpen&src=https%3A%2F%2Fldb-phinf.pstatic.net%2F20190701_53%2F1561961604126Un2rO_JPEG%2FTZlyoAN9QAve7EuYZHRdLNTQ.jpg,37.8671979,127.7535046,,,강원특별자치도 춘천시 석사동 729-6,1998-08-28,1,141.37,2023-02-23 10:52:56,강원특별자치도,춘천시,석사동,729-6
8608,쭈꾸미도사,고기/구이,식육(숯불구이),양식,https://search.pstatic.net/common/?autoRotate=true&type=w560_sharpen&src=https%3A%2F%2Fldb-phinf.pstatic.net%2F20200108_49%2F1578448368878HEYL0_JPEG%2F-Az53mrT_IV8EjyxZRLti_RB.jpg,37.866612,127.7524442,,,강원특별자치도 춘천시 석사동 736-9,2000-07-06,1,97.56,2019-11-28 16:28:44,강원특별자치도,춘천시,석사동,736-9
8514,남부닭갈비,고기/구이,분식,기타,https://search.pstatic.net/common/?autoRotate=true&type=w560_sharpen&src=https%3A%2F%2Fldb-phinf.pstatic.net%2F20200109_51%2F1578550719687YhWLt_JPEG%2F8QgLAlw3glP6tVcVjcGbQHpn.jpg,37.8700878,127.7266694,,,강원특별자치도 춘천시 효자동 685-14,2003-11-18,1,35.34,2022-02-07 10:53:11,강원특별자치도,춘천시,효자동,685-14
11793,곱돌생삼겹살,고기/구이,식육(숯불구이),기타,https://search.pstatic.net/common/?autoRotate=true&type=w560_sharpen&src=https%3A%2F%2Fldb-phinf.pstatic.net%2F20200111_257%2F1578717040025mMgv5_JPEG%2F70mEsPm77CsbHMvoZ56ycx2p.JPG.jpg,37.8731147,127.745442,,,강원특별자치도 춘천시 효자동 631-3,2015-11-06,1,234.24,2022-01-20 16:41:25,강원특별자치도,춘천시,효자동,631-3
12111,삼봉한우정육식당,고기/구이,한식,기타,https://search.pstatic.net/common/?autoRotate=true&type=w560_sharpen&src=https%3A%2F%2Fldb-phinf.pstatic.net%2F20200117_276%2F1579251262897dWzTy_JPEG%2FW2HUTRP6Wc6zlXmJtrqOUPow.jpg,37.8555626,127.7460966,,,강원특별자치도 춘천시 석사동 818-13,2018-03-29,1,207.9,2021-10-27 13:15:47,강원특별자치도,춘천시,석사동,818-13
11264,돌다리야채곱창,고기/구이,기타,분식,https://search.pstatic.net/common/?autoRotate=true&type=w560_sharpen&src=https%3A%2F%2Fldb-phinf.pstatic.net%2F20200124_178%2F1579833366140GRz3K_JPEG%2FQSGMoEekE0SkVvPDlETK_IJT.jpg,37.8741449,127.7419541,,,강원특별자치도 춘천시 효자동 618-10,2016-05-03,1,95,2022-01-20 17:34:08,강원특별자치도,춘천시,효자동,618-10
8552,장군막창구이,고기/구이,식육(숯불구이),고기/구이,https://search.pstatic.net/common/?autoRotate=true&type=w560_sharpen&src=https%3A%2F%2Fldb-phinf.pstatic.net%2F20200201_258%2F1580559346266960g7_JPEG%2FozvdY14PDdB_fdmk_KGyP8Dk.JPG.jpg,37.866889,127.7534025,,,강원특별자치도 춘천시 석사동 735-2,1997-10-24,1,36.08,2021-04-12 10:10:06,강원특별자치도,춘천시,석사동,735-2
8855,한지붕갈비,고기/구이,식육(숯불구이),고기/구이,https://search.pstatic.net/common/?autoRotate=true&type=w560_sharpen&src=https%3A%2F%2Fldb-phinf.pstatic.net%2F20200315_247%2F1584274339649RIBNG_JPEG%2FfsGz5B9JFxgKjFokARyEtQI2.jpg,37.8609478,127.7433555,,,강원특별자치도 춘천시 석사동 640,2001-11-30,1,72.14,2018-02-12 9:48:28,강원특별자치도,춘천시,석사동,640
8346,스푼더마켓,고기/구이,한식,고기/구이,https://search.pstatic.net/common/?autoRotate=true&type=w560_sharpen&src=https%3A%2F%2Fldb-phinf.pstatic.net%2F20200428_38%2F1588074063415w73Xn_JPEG%2FH8dicGj7vhpXEyzaoyV_ueST.jpg,37.8745988,127.7431512,,,강원특별자치도 춘천시 효자동 20-14 (2층),2010-09-16,1,123.2,2022-01-19 11:14:57,강원특별자치도,춘천시,효자동,20-14 (2층)
8488,공지천왕갈비스무숲점,고기/구이,한식,고기/구이,https://search.pstatic.net/common/?autoRotate=true&type=w560_sharpen&src=https%3A%2F%2Fldb-phinf.pstatic.net%2F20200605_280%2F1591357964100NMGm6_JPEG%2FskC0pTNZZtNzwFQs_N6Ae5oA.jpg,37.8486907,127.7503026,,,강원특별자치도 춘천시 석사동 942-2 (1층),2005-12-05,1,113.5,2022-02-07 11:52:01,강원특별자치도,춘천시,석사동,942-2 (1층)
11313,육반주,고기/구이,식육(숯불구이),기타,https://search.pstatic.net/common/?autoRotate=true&type=w560_sharpen&src=https%3A%2F%2Fldb-phinf.pstatic.net%2F20200606_230%2F1591418950213krAF4_JPEG%2F7Fgw4TFlvH_wa_QJxpZJGg-7.jpg,37.8489225,127.7512354,,,강원특별자치도 춘천시 석사동 921-7,2018-10-12,1,117,2022-02-07 14:24:58,강원특별자치도,춘천시,석사동,921-7
8029,한우가,고기/구이,한식,치킨,https://search.pstatic.net/common/?autoRotate=true&type=w560_sharpen&src=https%3A%2F%2Fldb-phinf.pstatic.net%2F20200607_6%2F15914836787144VaNa_JPEG%2F4YuFVxczH1mpclT_jjSnqFQG.jpg,37.8475614,127.751161,,,"강원특별자치도 춘천시 석사동 155-4 1,2동",2006-02-27,1,229.72,2021-04-12 10:30:51,강원특별자치도,춘천시,석사동,"155-4 1,2동"
9269,미가,고기/구이,한식,양식,https://search.pstatic.net/common/?autoRotate=true&type=w560_sharpen&src=https%3A%2F%2Fldb-phinf.pstatic.net%2F20200610_73%2F1591753382918YrUwO_JPEG%2Fa84xjyrz-zaaaMK7JXMpBU1v.jpg,37.865475,127.7357512,,,강원특별자치도 춘천시 효자동 315-6,1996-01-08,1,90,2021-12-22 11:54:38,강원특별자치도,춘천시,효자동,315-6
8562,큰손양대창곱창구이,고기/구이,한식,백반,https://search.pstatic.net/common/?autoRotate=true&type=w560_sharpen&src=https%3A%2F%2Fldb-phinf.pstatic.net%2F20200728_195%2F1595934757652ou9w2_JPEG%2FtqcUjAcTjppOxFFE8ZUy1Tx-.jpg,37.8491819,127.7504183,,,강원특별자치도 춘천시 석사동 915-6 (1층),2006-10-09,1,116.19,2022-02-07 13:09:34,강원특별자치도,춘천시,석사동,915-6 (1층)
11164,착한곱한우곱창춘천2호석사점,고기/구이,식육(숯불구이),백반,https://search.pstatic.net/common/?autoRotate=true&type=w560_sharpen&src=https%3A%2F%2Fldb-phinf.pstatic.net%2F20200928_282%2F1601290859333Qw4ff_JPEG%2Fj1wvUtY9evi2e29VoknN1RA_.jpeg.jpg,37.8546972,127.7471578,,,강원특별자치도 춘천시 석사동 827-1,2015-03-10,1,147.4,2022-01-19 14:59:58,강원특별자치도,춘천시,석사동,827-1
11681,구이와전골,고기/구이,식육(숯불구이),기타,https://search.pstatic.net/common/?autoRotate=true&type=w560_sharpen&src=https%3A%2F%2Fldb-phinf.pstatic.net%2F20201104_253%2F1604471977700X1Qh0_JPEG%2F21Ijrs1y9RVraFfvXjaLRfd-.jpg,37.8749115,127.7343647,,,강원특별자치도 춘천시 효자동 658-1,2016-10-24,1,72,2022-09-22 9:30:18,강원특별자치도,춘천시,효자동,658-1
8517,장안돌구이,고기/구이,식육(숯불구이),양식,https://search.pstatic.net/common/?autoRotate=true&type=w560_sharpen&src=https%3A%2F%2Fldb-phinf.pstatic.net%2F20201226_149%2F16089638921949t22l_JPEG%2FG9nJNLxWpxpY1n0ri6VnG8U6.jpg,37.85794,127.7424494,,,강원특별자치도 춘천시 석사동 663-2 (1층),1993-04-16,1,93.6,2021-12-19 16:39:30,강원특별자치도,춘천시,석사동,663-2 (1층)
8993,대복갈매기살,고기/구이,한식,기타,https://search.pstatic.net/common/?autoRotate=true&type=w560_sharpen&src=https%3A%2F%2Fldb-phinf.pstatic.net%2F20210104_189%2F1609725100151yTLoH_JPEG%2F2SU1TwWtFEMEcpSSMW79hCaF.jpg,37.8668969,127.7531707,,,강원특별자치도 춘천시 석사동 735-20,1998-09-18,1,50.35,2022-01-19 14:32:39,강원특별자치도,춘천시,석사동,735-20
11530,소달구지,고기/구이,식육(숯불구이),기타,https://search.pstatic.net/common/?autoRotate=true&type=w560_sharpen&src=https%3A%2F%2Fldb-phinf.pstatic.net%2F20210426_65%2F1619404474174GC5NN_JPEG%2FtHUsmxQzVwusXgdl0nZQLy05.jpg,37.8746526,127.7355739,,,강원특별자치도 춘천시 효자동 650-1,2021-04-19,1,68.53,2021-04-25 19:58:39,강원특별자치도,춘천시,효자동,650-1
8170,지리산토종흑돼지,고기/구이,식육(숯불구이),백반,https://search.pstatic.net/common/?autoRotate=true&type=w560_sharpen&src=https%3A%2F%2Fldb-phinf.pstatic.net%2F20210517_29%2F1621262521459uaV3p_JPEG%2FKtxqZz1qLT8lAUydPcRw8-Dj.jpg,37.8502757,127.7493938,,,강원특별자치도 춘천시 석사동 907-8 (1층),2008-05-27,1,123.18,2021-04-19 10:19:42,강원특별자치도,춘천시,석사동,907-8 (1층)
9976,7.5닭갈비,고기/구이,정종/대포집/소주방,고기/구이,https://search.pstatic.net/common/?autoRotate=true&type=w560_sharpen&src=https%3A%2F%2Fldb-phinf.pstatic.net%2F20210607_161%2F1623055580117p5quO_JPEG%2FYBhl1HoQGsDGRpMRsrsX94eO.jpeg.jpg,37.8662959,127.7527401,,,강원특별자치도 춘천시 석사동 735-9,2013-05-31,1,107.13,2022-01-19 13:54:10,강원특별자치도,춘천시,석사동,735-9
8612,석사돈사무소,고기/구이,한식,기타,https://search.pstatic.net/common/?autoRotate=true&type=w560_sharpen&src=https%3A%2F%2Fldb-phinf.pstatic.net%2F20210608_55%2F1623153886469TO9iO_JPEG%2F2Uuw206CYtISUn3k9x2QC_Fr.jpg,37.8583555,127.7453498,,,강원특별자치도 춘천시 석사동 679-1,2002-04-26,1,130.56,2022-02-07 9:58:31,강원특별자치도,춘천시,석사동,679-1
9877,춘천명품닭갈비,고기/구이,식육(숯불구이),기타,https://search.pstatic.net/common/?autoRotate=true&type=w560_sharpen&src=https%3A%2F%2Fldb-phinf.pstatic.net%2F20210610_88%2F1623311405860R8zi3_JPEG%2FV3qBAlQ1UY8A5e4t2GKg8Kr1.jpg,37.8671527,127.7538083,,,강원특별자치도 춘천시 석사동 729-4 (1층),2006-06-16,1,191.32,2018-10-30 15:03:21,강원특별자치도,춘천시,석사동,729-4 (1층)
11695,재대루,고기/구이,식육(숯불구이),기타,https://search.pstatic.net/common/?autoRotate=true&type=w560_sharpen&src=https%3A%2F%2Fldb-phinf.pstatic.net%2F20210811_141%2F16286704717207pbKm_JPEG%2FgxngtBM6Cwqphca1sPvfZEJw.jpeg.jpg,37.8540938,127.7471072,,,강원특별자치도 춘천시 석사동 832-10,2021-07-12,1,80.2,2022-01-20 11:29:43,강원특별자치도,춘천시,석사동,832-10
10859,돌아온왕십리곱창,고기/구이,식육(숯불구이),분식,https://search.pstatic.net/common/?autoRotate=true&type=w560_sharpen&src=https%3A%2F%2Fldb-phinf.pstatic.net%2F20210908_279%2F1631093365576KQpB5_JPEG%2FCLGCwmKuZrgJRVkwyuMd7ahB.jpg,37.8620548,127.7394162,,,강원특별자치도 춘천시 석사동 705-20,2017-07-25,1,47.97,2023-08-14 13:38:29,강원특별자치도,춘천시,석사동,705-20
9051,머루촌숯불갈비,고기/구이,한식,고기/구이,https://search.pstatic.net/common/?autoRotate=true&type=w560_sharpen&src=https%3A%2F%2Fldb-phinf.pstatic.net%2F20210930_166%2F1633001389469IrxhM_JPEG%2F8LbwJYEaE6RB-U9mbbz_J7AA.jpg,37.861464,127.742202,,,강원특별자치도 춘천시 석사동 639-1,1998-12-11,1,65.55,2023-06-20 10:39:06,강원특별자치도,춘천시,석사동,639-1
7962,황토영광장어,고기/구이,식육(숯불구이),기타,https://search.pstatic.net/common/?autoRotate=true&type=w560_sharpen&src=https%3A%2F%2Fldb-phinf.pstatic.net%2F20220107_85%2F1641548835144vEwbP_JPEG%2F666852D2-377B-4898-9CE7-A2579E6D3F08.jpeg,37.8618728,127.7409741,,,강원특별자치도 춘천시 석사동 696-1,2003-10-07,1,64.66,2022-02-07 10:51:55,강원특별자치도,춘천시,석사동,696-1
10964,고기혁명춘천점,고기/구이,식육(숯불구이),기타,https://search.pstatic.net/common/?autoRotate=true&type=w560_sharpen&src=https%3A%2F%2Fldb-phinf.pstatic.net%2F20220126_70%2F16431782118250B5BW_JPEG%2F%25B9%25D9%25B1%25F9%25BB%25E7%25C1%25F8.jpg,37.8669673,127.7316223,,,강원특별자치도 춘천시 효자동 707-20,2022-01-04,1,60,2022-10-05 11:06:09,강원특별자치도,춘천시,효자동,707-20
9695,돌돌생삼겹살,고기/구이,식육(숯불구이),고기/구이,https://search.pstatic.net/common/?autoRotate=true&type=w560_sharpen&src=https%3A%2F%2Fldb-phinf.pstatic.net%2F20220317_227%2F1647528695920EJJ1J_JPEG%2F20220314_115213_%25282%2529.jpg,37.8729743,127.7450561,,,강원특별자치도 춘천시 효자동 632-8 (3동지하1~1층),2003-04-15,1,173.22,2022-02-07 10:37:15,강원특별자치도,춘천시,효자동,632-8 (3동지하1~1층)
11984,심야화로스무숲점,고기/구이,식육(숯불구이),기타,https://search.pstatic.net/common/?autoRotate=true&type=w560_sharpen&src=https%3A%2F%2Fldb-phinf.pstatic.net%2F20220318_43%2F1647570570084AD3Y8_JPEG%2F1647505283565-1.jpg,37.8490139,127.7502504,,,강원특별자치도 춘천시 석사동 917-7,2022-03-14,1,87.04,2022-04-28 17:11:01,강원특별자치도,춘천시,석사동,917-7
11764,돼끼리,고기/구이,한식,기타,https://search.pstatic.net/common/?autoRotate=true&type=w560_sharpen&src=https%3A%2F%2Fldb-phinf.pstatic.net%2F20220321_250%2F1647857615639fLYC5_JPEG%2F20220321_183402.jpg,37.8577958,127.7447254,,,강원특별자치도 춘천시 석사동 667-4,2016-12-12,1,56.25,2023-03-16 8:58:06,강원특별자치도,춘천시,석사동,667-4
8809,이걸굽네,고기/구이,식육(숯불구이),고기/구이,https://search.pstatic.net/common/?autoRotate=true&type=w560_sharpen&src=https%3A%2F%2Fldb-phinf.pstatic.net%2F20220328_156%2F1648402868966RWoc8_JPEG%2F%25C0%25CC%25B0%25C9%25B1%25C1%25B3%25D7.jpg,37.8668426,127.7527028,,,강원특별자치도 춘천시 석사동 736-6,1999-07-14,1,39.78,2022-08-17 11:16:39,강원특별자치도,춘천시,석사동,736-6
8457,삼광식당,고기/구이,한식,중식,https://search.pstatic.net/common/?autoRotate=true&type=w560_sharpen&src=https%3A%2F%2Fldb-phinf.pstatic.net%2F20220507_21%2F1651925006410X38L7_JPEG%2F16519249671962658880706699969651.jpg,37.8715019,127.7261858,,,강원특별자치도 춘천시 효자동 675,2012-09-24,1,51.5,2022-04-14 9:51:18,강원특별자치도,춘천시,효자동,675
10345,제주안방갈비석사점,고기/구이,식육(숯불구이),기타,https://search.pstatic.net/common/?autoRotate=true&type=w560_sharpen&src=https%3A%2F%2Fldb-phinf.pstatic.net%2F20220510_147%2F1652179640750QSs7x_JPEG%2FIMG_20220508_103859_1.jpg,37.8607045,127.7397638,,,강원특별자치도 춘천시 석사동 706-14,2019-11-06,1,93.39,2021-12-19 16:42:36,강원특별자치도,춘천시,석사동,706-14
9567,나눔화로숯불구이,고기/구이,식육(숯불구이),고기/구이,https://search.pstatic.net/common/?autoRotate=true&type=w560_sharpen&src=https%3A%2F%2Fldb-phinf.pstatic.net%2F20220511_40%2F1652263494343DARvq_JPEG%2F20220511_190447.jpg,37.8729247,127.7334384,,,강원특별자치도 춘천시 효자동 661-13,2003-12-09,1,74.7,2022-02-07 10:55:07,강원특별자치도,춘천시,효자동,661-13
7872,양철집,고기/구이,한식,고기/구이,https://search.pstatic.net/common/?autoRotate=true&type=w560_sharpen&src=https%3A%2F%2Fldb-phinf.pstatic.net%2F20220512_297%2F1652348862052UsEW9_JPEG%2F%25BE%25E7%25C3%25B6%25C1%25FD.jpg,37.8567715,127.7418429,,,강원특별자치도 춘천시 석사동 796-12,2004-07-14,1,174.78,2021-10-12 15:47:34,강원특별자치도,춘천시,석사동,796-12
11566,삼삼회관,고기/구이,식육(숯불구이),기타,https://search.pstatic.net/common/?autoRotate=true&type=w560_sharpen&src=https%3A%2F%2Fldb-phinf.pstatic.net%2F20220801_228%2F1659336443331kquNE_JPEG%2FKakaoTalk_20220729_165621425.jpg,37.8618041,127.7392246,,,강원특별자치도 춘천시 석사동 705-18,2022-05-20,1,52.8,2022-05-26 9:29:44,강원특별자치도,춘천시,석사동,705-18
8023,제주돈통,고기/구이,한식,고기/구이,https://search.pstatic.net/common/?autoRotate=true&type=w560_sharpen&src=https%3A%2F%2Fldb-phinf.pstatic.net%2F20220811_150%2F1660187132179c1NAQ_JPEG%2FFB_IMG_1660187110942.jpg,37.849177,127.7507657,,,강원특별자치도 춘천시 석사동 919-4 (1층),2008-09-17,1,96.82,2017-02-08 16:06:05,강원특별자치도,춘천시,석사동,919-4 (1층)
9406,환희관,고기/구이,기타,고기/구이,https://search.pstatic.net/common/?autoRotate=true&type=w560_sharpen&src=https%3A%2F%2Fldb-phinf.pstatic.net%2F20221017_285%2F1666012601235YIltW_JPEG%2FB537F54F-94B9-49F8-8364-ED63DEB9E1B9.jpeg,37.8661353,127.7519102,,,강원특별자치도 춘천시 석사동 741-3,1998-03-06,1,84.16,2022-09-15 14:27:47,강원특별자치도,춘천시,석사동,741-3
11353,박군한우,고기/구이,횟집,기타,https://search.pstatic.net/common/?autoRotate=true&type=w560_sharpen&src=https%3A%2F%2Fldb-phinf.pstatic.net%2F20221026_40%2F1666781266121PWfPh_JPEG%2F87D10F9B-DCA7-445B-8D45-DCAD4D400AF4.jpeg,37.8603798,127.7429933,,,강원특별자치도 춘천시 석사동 644-4,2019-09-17,1,101.93,2022-10-11 10:03:37,강원특별자치도,춘천시,석사동,644-4
10092,즐거운하루숯불생고기,고기/구이,식육(숯불구이),치킨,https://search.pstatic.net/common/?autoRotate=true&type=w560_sharpen&src=https%3A%2F%2Fldb-phinf.pstatic.net%2F20221109_113%2F16679799899686HC55_JPEG%2F20221106_175614_01.jpg,37.8661187,127.7616198,,,강원특별자치도 춘천시 석사동 34-6,2017-06-07,1,127.44,2021-02-02 10:32:41,강원특별자치도,춘천시,석사동,34-6
8428,태평소스무숲점,고기/구이,식육(숯불구이),고기/구이,https://search.pstatic.net/common/?autoRotate=true&type=w560_sharpen&src=https%3A%2F%2Fldb-phinf.pstatic.net%2F20230112_185%2F1673503223728LIHYN_JPEG%2F1673503209059.jpg,37.8496778,127.7492126,,,강원특별자치도 춘천시 석사동 904-3 (1층),2005-12-01,1,256.85,2023-04-26 10:35:47,강원특별자치도,춘천시,석사동,904-3 (1층)
8060,재왕무한리필양꼬치훠궈,고기/구이,한식,치킨,https://search.pstatic.net/common/?autoRotate=true&type=w560_sharpen&src=https%3A%2F%2Fldb-phinf.pstatic.net%2F20230113_117%2F1673548813815e1so9_JPEG%2F20230113_033055.jpg,37.8674081,127.7532845,,,강원특별자치도 춘천시 석사동 728-5,1997-08-25,1,158.41,2022-12-07 9:18:39,강원특별자치도,춘천시,석사동,728-5
7656,석수한우,고기/구이,호프/통닭,고기/구이,https://search.pstatic.net/common/?autoRotate=true&type=w560_sharpen&src=https%3A%2F%2Fldb-phinf.pstatic.net%2F20230113_173%2F1673598282866VwPV0_JPEG%2F1670646945278.jpg,37.850167,127.7498029,,,강원특별자치도 춘천시 석사동 909-9,2007-01-31,1,115.05,2021-10-19 13:35:43,강원특별자치도,춘천시,석사동,909-9
8818,너와집,고기/구이,호프/통닭,양식,https://search.pstatic.net/common/?autoRotate=true&type=w560_sharpen&src=https%3A%2F%2Fldb-phinf.pstatic.net%2F20230114_25%2F1673655016451JoF1O_JPEG%2F20220119_212056.jpg,37.8751731,127.7395819,,,강원특별자치도 춘천시 효자동 612-4,2000-01-24,1,37.4,2022-01-21 17:47:57,강원특별자치도,춘천시,효자동,612-4
10369,낙원갈비집춘천점,고기/구이,기타,고기/구이,https://search.pstatic.net/common/?autoRotate=true&type=w560_sharpen&src=https%3A%2F%2Fldb-phinf.pstatic.net%2F20230214_60%2F1676351554165La7Da_PNG%2F333.,37.8573073,127.7390871,,,강원특별자치도 춘천시 석사동 799-1,2023-02-08,1,148.9,2023-10-31 14:10:50,강원특별자치도,춘천시,석사동,799-1
10120,고기극찬춘천점,고기/구이,식육(숯불구이),중식,https://search.pstatic.net/common/?autoRotate=true&type=w560_sharpen&src=https%3A%2F%2Fldb-phinf.pstatic.net%2F20230217_184%2F1676623286172Q50YQ_JPEG%2F1676446417963.jpg,37.8658991,127.7324429,,,강원특별자치도 춘천시 효자동 711-20,2022-10-11,1,79.2,2022-10-19 14:20:54,강원특별자치도,춘천시,효자동,711-20
12072,쉐프박스,고기/구이,식육(숯불구이),기타,https://search.pstatic.net/common/?autoRotate=true&type=w560_sharpen&src=https%3A%2F%2Fldb-phinf.pstatic.net%2F20230218_119%2F1676699546510qIGHX_JPEG%2F20230203_162146.jpg,37.8480326,127.7503157,,,강원특별자치도 춘천시 석사동 946-5,2021-06-01,1,129.99,2022-01-20 11:14:54,강원특별자치도,춘천시,석사동,946-5
12239,산애그린,고기/구이,식육(숯불구이),기타,https://search.pstatic.net/common/?autoRotate=true&type=w560_sharpen&src=https%3A%2F%2Fldb-phinf.pstatic.net%2F20230221_123%2F1676950436172zBVQ2_JPEG%2F70823B28-22CC-4944-A87E-5C2E1EC938E3.jpeg,37.8522472,127.7515088,,,강원특별자치도 춘천시 석사동 116-3,2016-11-25,1,194.1,2020-12-07 17:15:53,강원특별자치도,춘천시,석사동,116-3
10888,배부리,고기/구이,한식,기타,https://search.pstatic.net/common/?autoRotate=true&type=w560_sharpen&src=https%3A%2F%2Fldb-phinf.pstatic.net%2F20230224_188%2F1677170349478dSiug_JPEG%2FC883BBCB-3C66-48C7-BC69-EC38121186D3.jpeg,37.8700875,127.7253498,,,강원특별자치도 춘천시 효자동 683-17,2021-09-27,1,166.96,2022-01-20 17:22:20,강원특별자치도,춘천시,효자동,683-17
8785,오성급정육식당,고기/구이,호프/통닭,고기/구이,https://search.pstatic.net/common/?autoRotate=true&type=w560_sharpen&src=https%3A%2F%2Fldb-phinf.pstatic.net%2F20230307_287%2F1678149955983UKCwO_JPEG%2F%25BF%25DC%25BA%25CE.jpg,37.8734999,127.7442458,,,강원특별자치도 춘천시 효자동 629-18 (1층),1995-09-25,1,67.47,2023-03-03 11:41:46,강원특별자치도,춘천시,효자동,629-18 (1층)
8577,해미연풍우가,고기/구이,일식,기타,https://search.pstatic.net/common/?autoRotate=true&type=w560_sharpen&src=https%3A%2F%2Fldb-phinf.pstatic.net%2F20230322_60%2F1679441252253m1Qb4_JPEG%2FDSC04372.,37.852202,127.7439549,,,강원특별자치도 춘천시 석사동 878-3,2007-09-07,1,245.2,2022-11-10 14:13:46,강원특별자치도,춘천시,석사동,878-3
9558,진능이한방오리,고기/구이,한식,기타,https://search.pstatic.net/common/?autoRotate=true&type=w560_sharpen&src=https%3A%2F%2Fldb-phinf.pstatic.net%2F20230329_39%2F1680092465297xQxYv_JPEG%2F20230327_124441.jpg,37.8484871,127.7518686,,,강원특별자치도 춘천시 석사동 928-2,2013-09-17,1,114.69,2023-03-17 16:42:45,강원특별자치도,춘천시,석사동,928-2
10307,참한고깃집,고기/구이,식육(숯불구이),기타,https://search.pstatic.net/common/?autoRotate=true&type=w560_sharpen&src=https%3A%2F%2Fldb-phinf.pstatic.net%2F20230402_216%2F1680409445861DnVEh_JPEG%2F20230402_130951.jpg,37.8574807,127.7441308,,,강원특별자치도 춘천시 석사동 662-4,2023-02-07,1,46.88,2023-03-31 17:24:26,강원특별자치도,춘천시,석사동,662-4
10688,홍게대게직판장,고기/구이,기타,기타,https://search.pstatic.net/common/?autoRotate=true&type=w560_sharpen&src=https%3A%2F%2Fldb-phinf.pstatic.net%2F20230405_17%2F1680680582773dBw7e_PNG%2F1675934294678_LCWBRBGHFJDEDAHGAFDDFCBGIF.png,37.8648746,127.7361043,,,강원특별자치도 춘천시 효자동 320-10,2023-03-29,1,45.26,2023-04-19 9:11:21,강원특별자치도,춘천시,효자동,320-10
8164,소란,고기/구이,한식,고기/구이,https://search.pstatic.net/common/?autoRotate=true&type=w560_sharpen&src=https%3A%2F%2Fldb-phinf.pstatic.net%2F20230406_89%2F1680775963145hBIWn_JPEG%2FIMG_4044.jpg,37.8745015,127.7426887,,,강원특별자치도 춘천시 효자동 619-13,2002-02-07,1,29.45,2020-10-26 15:52:39,강원특별자치도,춘천시,효자동,619-13
10732,육칠이 춘천점,고기/구이,기타,고기/구이,https://search.pstatic.net/common/?autoRotate=true&type=w560_sharpen&src=https%3A%2F%2Fldb-phinf.pstatic.net%2F20230425_55%2F16823820849514zOKV_JPEG%2F20230420_140241.jpg,37.874429,127.7403849,,,강원특별자치도 춘천시 효자동 616-8,2023-04-03,1,31.24,2023-04-05 11:14:35,강원특별자치도,춘천시,효자동,616-8
7833,원조퇴골집오리숯불구이서면본점막내아들,고기/구이,식육(숯불구이),고기/구이,https://search.pstatic.net/common/?autoRotate=true&type=w560_sharpen&src=https%3A%2F%2Fldb-phinf.pstatic.net%2F20230428_222%2F168265677802081yqx_JPEG%2FKakaoTalk_20230428_131905235.jpg,37.8499285,127.7495738,,,강원특별자치도 춘천시 석사동 909-7,2005-10-27,1,124.74,2022-12-06 13:15:24,강원특별자치도,춘천시,석사동,909-7
10734,먹보정식,고기/구이,한식,고기/구이,https://search.pstatic.net/common/?autoRotate=true&type=w560_sharpen&src=https%3A%2F%2Fldb-phinf.pstatic.net%2F20230503_212%2F1683117666965tEnE3_JPEG%2F6FCC28BE-1614-4303-AA7C-751A66E27142.jpeg,37.8619906,127.7464811,,,강원특별자치도 춘천시 석사동 774-2,2023-04-06,1,53.55,2023-04-17 9:20:08,강원특별자치도,춘천시,석사동,774-2
8629,비와별닭갈비본점,고기/구이,식육(숯불구이),치킨,https://search.pstatic.net/common/?autoRotate=true&type=w560_sharpen&src=https%3A%2F%2Fldb-phinf.pstatic.net%2F20230519_269%2F1684484605403o4EWe_JPEG%2F%25C7%25C3%25B7%25B9%25C0%25CC%25BD%25BA_%25C6%25ED%25C1%25FD%25BF%25EB.jpg,37.8498651,127.7489789,,,강원특별자치도 춘천시 석사동 904-2,2007-08-02,1,425.94,2021-04-11 22:48:48,강원특별자치도,춘천시,석사동,904-2
11624,임가네,고기/구이,기타,기타,https://search.pstatic.net/common/?autoRotate=true&type=w560_sharpen&src=https%3A%2F%2Fldb-phinf.pstatic.net%2F20230608_209%2F1686206996001qP4Hl_JPEG%2F%25B9%25E8%25B0%25E6%25C8%25AD%25B8%25E9_%25BA%25B9%25BB%25E7.jpg,37.8544017,127.747047,,,강원특별자치도 춘천시 석사동 832-1,2016-06-21,1,78.75,2022-02-09 9:53:53,강원특별자치도,춘천시,석사동,832-1
10683,닭쳐,고기/구이,기타,기타,https://search.pstatic.net/common/?autoRotate=true&type=w560_sharpen&src=https%3A%2F%2Fldb-phinf.pstatic.net%2F20230609_140%2F168627068176290W4w_JPEG%2F20230608_142411.jpg,37.8664554,127.7522688,,,강원특별자치도 춘천시 석사동 736-11,2023-02-22,1,95.32,2023-05-23 11:12:50,강원특별자치도,춘천시,석사동,736-11
10014,효자동솥뚜껑애막골점,고기/구이,정종/대포집/소주방,고기/구이,https://search.pstatic.net/common/?autoRotate=true&type=w560_sharpen&src=https%3A%2F%2Fldb-phinf.pstatic.net%2F20230614_289%2F1686717707842b3q7n_JPEG%2F%25C7%25D7%25B0%25F8_%25BF%25EB%25B7%25AE%25B3%25B7%25C0%25BD.,37.8667347,127.7516654,,,강원특별자치도 춘천시 석사동 737-12,2004-02-04,1,96.25,2023-06-23 17:01:07,강원특별자치도,춘천시,석사동,737-12
9393,불난집,고기/구이,기타,고기/구이,https://search.pstatic.net/common/?autoRotate=true&type=w560_sharpen&src=https%3A%2F%2Fldb-phinf.pstatic.net%2F20230811_144%2F1691734906549M8DvI_JPEG%2F20230811_143015.jpg,37.8658168,127.7372766,,,강원특별자치도 춘천시 효자동 317,1988-07-26,1,152.9,2023-09-06 16:32:20,강원특별자치도,춘천시,효자동,317
11592,곱창킬러본점,고기/구이,한식,기타,https://search.pstatic.net/common/?autoRotate=true&type=w560_sharpen&src=https%3A%2F%2Fldb-phinf.pstatic.net%2F20230818_232%2F1692354224750V0SCJ_JPEG%2F1687757246462.jpg,37.8713697,127.736924,,,강원특별자치도 춘천시 효자동 158-8,2020-11-18,1,24.51,2023-01-05 14:00:50,강원특별자치도,춘천시,효자동,158-8
10571,아오하루,고기/구이,식육(숯불구이),기타,https://search.pstatic.net/common/?autoRotate=true&type=w560_sharpen&src=https%3A%2F%2Fldb-phinf.pstatic.net%2F20230903_124%2F1693734734641YD48d_JPEG%2F1693733671161.jpg,37.8658797,127.7522731,,,강원특별자치도 춘천시 석사동 742-3,2019-10-29,1,97.3,2023-08-17 9:10:41,강원특별자치도,춘천시,석사동,742-3
9772,하하산꼼장어,고기/구이,한식,백반,https://search.pstatic.net/common/?autoRotate=true&type=w560_sharpen&src=https%3A%2F%2Fldb-phinf.pstatic.net%2F20230907_26%2F1694087046590DY69s_JPEG%2FIMG_2678.jpeg,37.8628802,127.7497803,,,강원특별자치도 춘천시 석사동 765-11,2013-10-14,1,143.83,2023-09-05 9:26:19,강원특별자치도,춘천시,석사동,765-11
9218,그린닭갈비,고기/구이,한식,고기/구이,https://search.pstatic.net/common/?autoRotate=true&type=w560_sharpen&src=https%3A%2F%2Fldb-phinf.pstatic.net%2F20230920_208%2F1695213326783iYnha_JPEG%2FKakaoTalk_20230920_201951735.jpg,37.875035,127.7459288,,,강원특별자치도 춘천시 효자동 17-8,1995-03-13,1,0,2022-01-19 13:18:37,강원특별자치도,춘천시,효자동,17-8
9681,궁채석갈비춘천점,고기/구이,식육(숯불구이),양식,https://search.pstatic.net/common/?autoRotate=true&type=w560_sharpen&src=https%3A%2F%2Fldb-phinf.pstatic.net%2F20231007_148%2F1696608619459ft4JL_JPEG%2F%25BC%25AE%25B0%25A5%25BA%25F1_%25C3%25D6%25C1%25BE-00296.jpg,37.8599782,127.7438074,,,강원특별자치도 춘천시 석사동 433-3,2006-05-18,1,129.67,2022-04-15 9:22:23,강원특별자치도,춘천시,석사동,433-3
8268,황제돼지갈비효자점,고기/구이,식육(숯불구이),기타,https://search.pstatic.net/common/?autoRotate=true&type=w560_sharpen&src=https%3A%2F%2Fldb-phinf.pstatic.net%2F20231008_12%2F1696727978140y9JcX_JPEG%2F20231008_093812.jpg,37.8755585,127.7339757,,,강원특별자치도 춘천시 효자동 656 (1층),2010-03-17,1,243.22,2023-10-04 13:41:43,강원특별자치도,춘천시,효자동,656 (1층)
7631,착한복돼지,고기/구이,식육(숯불구이),양식,https://search.pstatic.net/common/?autoRotate=true&type=w560_sharpen&src=https%3A%2F%2Fldb-phinf.pstatic.net%2F20231009_244%2F1696840612427UKxS8_JPEG%2F1000000291.jpg,37.8661874,127.7513144,,,강원특별자치도 춘천시 석사동 740-6,2003-06-16,1,38.11,2023-08-22 16:15:15,강원특별자치도,춘천시,석사동,740-6
7855,통큰무한삼겹,고기/구이,한식,기타,https://search.pstatic.net/common/?autoRotate=true&type=w560_sharpen&src=https%3A%2F%2Fldb-phinf.pstatic.net%2F20231018_22%2F1697622275264XJLCL_JPEG%2F1697622154176.jpg,37.8484878,127.7507186,,,강원특별자치도 춘천시 석사동 942-5 (1층),2006-11-15,1,121.38,2023-08-17 11:24:19,강원특별자치도,춘천시,석사동,942-5 (1층)
10341,두리기갈매기살,고기/구이,기타,기타,https://search.pstatic.net/common/?autoRotate=true&type=w560_sharpen&src=https%3A%2F%2Fldb-phinf.pstatic.net%2F20231026_89%2F1698269128394DK3PG_JPEG%2FIMG_8617.jpeg,37.8494151,127.7511952,,,강원특별자치도 춘천시 석사동 919-10,2022-07-29,1,108.63,2023-10-19 15:40:51,강원특별자치도,춘천시,석사동,919-10
12363,소유화로,고기/구이,식육(숯불구이),기타,https://search.pstatic.net/common/?autoRotate=true&type=w560_sharpen&src=https%3A%2F%2Fldb-phinf.pstatic.net%2F20231126_157%2F1701003345755RGPVL_JPEG%2FKakaoTalk_20231126_215412548.jpg,37.8644844,127.7334983,,,강원특별자치도 춘천시 효자동 367-28 윤일아파트,2023-10-26,1,47.88,2023-10-26 11:06:06,강원특별자치도,춘천시,효자동,367-28 윤일아파트
7753,오돌이닭발,고기/구이,호프/통닭,양식,https://search.pstatic.net/common/?autoRotate=true&type=w560_sharpen&src=https%3A%2F%2Fnaverbooking-phinf.pstatic.net%2F20230514_294%2F1684041263843XD8Sy_JPEG%2Fimage.jpg,37.86624,127.7517614,,,강원특별자치도 춘천시 석사동 741-8,2010-10-04,1,105.2,2018-01-16 10:31:29,강원특별자치도,춘천시,석사동,741-8
8534,돈차,고기/구이,식육(숯불구이),고기/구이,https://search.pstatic.net/common/?autoRotate=true&type=w560_sharpen&src=https%3A%2F%2Fnaverbooking-phinf.pstatic.net%2F20230718_272%2F1689636977571kLUhf_JPEG%2F%25BB%25E7%25C1%25F81.,37.8657615,127.7530859,,,강원특별자치도 춘천시 석사동 733-23,2002-06-20,1,97.48,2019-04-10 13:16:20,강원특별자치도,춘천시,석사동,733-23
12308,곱정당춘천효자점,고기/구이,한식,기타,https://search.pstatic.net/common/?autoRotate=true&type=w560_sharpen&src=https%3A%2F%2Fldb-phinf.pstatic.net%2F20220928_274%2F1664349739841KFuTr_JPEG%2F20220928_162100.jpg,37.8734114,127.7338797,,,강원특별자치도 춘천시 효자동 661-19,2019-08-07,1,60.76,2021-11-23 14:39:25,강원특별자치도,춘천시,효자동,661-19
9692,효자소머리해장국,국밥,한식,기타,https://search.pstatic.net/common/?autoRotate=true&quality=95&type=w750&src=https%3A%2F%2Fldb-phinf.pstatic.net%2F20170530_5%2F14961294693298Cmns_JPEG%2F186480566129.jpg,37.8693187,127.7301002,,,강원특별자치도 춘천시 효자동 670-8,2003-04-11,1,39.82,2022-02-07 10:36:31,강원특별자치도,춘천시,효자동,670-8
10980,열정푸드,국밥,분식,기타,https://search.pstatic.net/common/?autoRotate=true&quality=95&type=w750&src=https%3A%2F%2Fldb-phinf.pstatic.net%2F20220511_53%2F16522565905366TUE2_JPEG%2FIMG_20220511_111519_1.jpg,37.87404,127.7430741,,,강원특별자치도 춘천시 효자동 625-1,2019-06-13,1,80.88,2020-08-20 16:45:28,강원특별자치도,춘천시,효자동,625-1
10906,써니푸드,국밥,한식,기타,https://search.pstatic.net/common/?autoRotate=true&quality=95&type=w750&src=https%3A%2F%2Fldb-phinf.pstatic.net%2F20230425_12%2F16823490755300DyvC_JPEG%2F20230425_000907.jpg,37.8579547,127.7432756,,,강원특별자치도 춘천시 석사동 666-9,2021-10-27,1,38.24,2023-02-13 16:43:40,강원특별자치도,춘천시,석사동,666-9
8030,새서울해장국,국밥,한식,양식,https://search.pstatic.net/common/?autoRotate=true&type=w560_sharpen&src=https%3A%2F%2Fldb-phinf.pstatic.net%2F20150901_107%2F1441074970444i2YeL_JPEG%2FSUBMIT_1429518282924_36449732.jpg,37.8746758,127.7432768,,,강원특별자치도 춘천시 효자동 20-13,2006-02-27,1,20.52,2022-02-07 11:56:17,강원특별자치도,춘천시,효자동,20-13
9328,남부순대국,국밥,한식,국밥,https://search.pstatic.net/common/?autoRotate=true&type=w560_sharpen&src=https%3A%2F%2Fldb-phinf.pstatic.net%2F20170328_162%2F1490663878661mB1AO_JPEG%2F20170325_102822.jpg,37.8715436,127.7264579,,,강원특별자치도 춘천시 효자동 547,2001-12-28,1,30.43,2023-04-06 14:43:36,강원특별자치도,춘천시,효자동,547
8925,소쿠리해장국,국밥,호프/통닭,중식,https://search.pstatic.net/common/?autoRotate=true&type=w560_sharpen&src=https%3A%2F%2Fldb-phinf.pstatic.net%2F20170601_296%2F1496313489396KxhKf_JPEG%2F20170501_083433.jpg,37.8735826,127.7432254,,,강원특별자치도 춘천시 효자동 626-8,2000-03-02,1,79.4,2013-01-31 11:32:23,강원특별자치도,춘천시,효자동,626-8
9456,양지식당,국밥,한식,고기/구이,https://search.pstatic.net/common/?autoRotate=true&type=w560_sharpen&src=https%3A%2F%2Fldb-phinf.pstatic.net%2F20170702_78%2F1498974681817zBtUr_JPEG%2F20170625_120651.jpg,37.8486232,127.750441,,,강원특별자치도 춘천시 석사동 942-3 (1층),2005-01-19,1,83.92,2012-02-01 14:45:27,강원특별자치도,춘천시,석사동,942-3 (1층)
8915,장할매국밥,국밥,한식,양식,https://search.pstatic.net/common/?autoRotate=true&type=w560_sharpen&src=https%3A%2F%2Fldb-phinf.pstatic.net%2F20181223_35%2F15455661393331zuew_JPEG%2F7s0QdE4nEhXwB3QQeCiVMwHN.jpg,37.8729515,127.7451565,,,강원특별자치도 춘천시 효자동 632-9 (1층),2001-10-22,1,86.85,2023-09-06 8:54:12,강원특별자치도,춘천시,효자동,632-9 (1층)
8222,뚱이수육국밥,국밥,한식,양식,https://search.pstatic.net/common/?autoRotate=true&type=w560_sharpen&src=https%3A%2F%2Fldb-phinf.pstatic.net%2F20181227_158%2F1545915507757Praax_JPEG%2FgPqWBVMwmxzFUUfupGhn7b4R.jpg,37.8673462,127.7523475,,,강원특별자치도 춘천시 석사동 737-20,2002-01-04,1,85.37,2014-05-16 9:47:33,강원특별자치도,춘천시,석사동,737-20
9865,조부자순대국(강대점),국밥,한식,국밥,https://search.pstatic.net/common/?autoRotate=true&type=w560_sharpen&src=https%3A%2F%2Fldb-phinf.pstatic.net%2F20190107_133%2F1546840194663KnBWi_JPEG%2FoLiZIpcjmOUrRd6rB-pRT5EN.jpg,37.8734351,127.7436901,,,강원특별자치도 춘천시 효자동 628-1,2014-02-06,1,60.48,2022-01-19 14:18:53,강원특별자치도,춘천시,효자동,628-1
9927,양평신내서울해장국,국밥,탕류(보신용),국밥,https://search.pstatic.net/common/?autoRotate=true&type=w560_sharpen&src=https%3A%2F%2Fldb-phinf.pstatic.net%2F20190126_55%2F15485058140961lbHM_JPEG%2F58eiMo4llwQCijgrfibvEkTR.jpg,37.8614543,127.7457171,,,강원특별자치도 춘천시 석사동 777-6 (1층),2007-05-25,1,119.98,2022-02-07 13:25:41,강원특별자치도,춘천시,석사동,777-6 (1층)
9209,가마솥순대국(애막골점),국밥,한식,회,https://search.pstatic.net/common/?autoRotate=true&type=w560_sharpen&src=https%3A%2F%2Fldb-phinf.pstatic.net%2F20190608_219%2F1559970585552n5WAr_JPEG%2FCzPNbetilbhdpqiuaskFaDTf.jpeg.jpg,37.8666327,127.7518101,,,강원특별자치도 춘천시 석사동 737-11,1999-04-21,1,97.27,2021-01-06 15:57:21,강원특별자치도,춘천시,석사동,737-11
9423,감미옥설렁탕,국밥,한식,국밥,https://search.pstatic.net/common/?autoRotate=true&type=w560_sharpen&src=https%3A%2F%2Fldb-phinf.pstatic.net%2F20200410_123%2F15865214218043y0pK_JPEG%2F8L1Vq-8T61SCtJjArEl_dqaN.jpg,37.8780307,127.7378314,,,강원특별자치도 춘천시 효자동 744-17 1층,1990-11-02,1,317.83,2022-01-19 11:21:31,강원특별자치도,춘천시,효자동,744-17 1층
8221,병천시골순대국밥,국밥,한식,국밥,https://search.pstatic.net/common/?autoRotate=true&type=w560_sharpen&src=https%3A%2F%2Fldb-phinf.pstatic.net%2F20200621_30%2F1592707810299IC81y_JPEG%2FcYjxE2Qwt82kkJG49RMG8IUE.jpg,37.875277,127.7431827,,,강원특별자치도 춘천시 효자동 623-11,2002-04-04,1,72.26,2012-12-12 11:04:54,강원특별자치도,춘천시,효자동,623-11
8128,채가네순대국,국밥,한식,분식,https://search.pstatic.net/common/?autoRotate=true&type=w560_sharpen&src=https%3A%2F%2Fldb-phinf.pstatic.net%2F20200622_284%2F1592830458860gr2Vs_JPEG%2F9FgPqf3xG8CqqxdUF358oL0m.jpg,37.8760131,127.7432653,,,강원특별자치도 춘천시 효자동 18-46,1994-04-22,1,73.3,2022-01-19 12:58:28,강원특별자치도,춘천시,효자동,18-46
9629,고우국밥,국밥,한식,국밥,https://search.pstatic.net/common/?autoRotate=true&type=w560_sharpen&src=https%3A%2F%2Fldb-phinf.pstatic.net%2F20200714_35%2F1594706087621biFzY_JPEG%2F-a0NIN7C2ahXurwP8o50miDW.jpg,37.8639692,127.7351036,,,강원특별자치도 춘천시 효자동 302-30,2006-05-08,1,75.69,2022-02-07 13:00:46,강원특별자치도,춘천시,효자동,302-30
10995,마선생마약국밥춘천점,국밥,한식,국밥,https://search.pstatic.net/common/?autoRotate=true&type=w560_sharpen&src=https%3A%2F%2Fldb-phinf.pstatic.net%2F20210615_255%2F1623743995560QROty_JPEG%2FK1FBMvcDZgBDuKvsK1JUMcxt.jpg,37.8691301,127.7298107,,,강원특별자치도 춘천시 효자동 671-10,2021-04-09,1,75,2023-10-30 15:06:11,강원특별자치도,춘천시,효자동,671-10
12323,오시드래요,국밥,기타,기타,https://search.pstatic.net/common/?autoRotate=true&type=w560_sharpen&src=https%3A%2F%2Fldb-phinf.pstatic.net%2F20220618_191%2F16555004398628givm_JPEG%2F1654149486888.jpg,37.8642692,127.736753,,,강원특별자치도 춘천시 효자동 326,2016-03-29,1,31.2,2022-04-29 9:24:29,강원특별자치도,춘천시,효자동,326
8200,명품탕수육,국밥,중국식,기타,https://search.pstatic.net/common/?autoRotate=true&type=w560_sharpen&src=https%3A%2F%2Fldb-phinf.pstatic.net%2F20220728_97%2F1658985361812isMw8_JPEG%2F20220728_135423.jpg,37.8729811,127.7401035,,,강원특별자치도 춘천시 효자동 776-7,2011-09-15,1,46.8,2019-02-22 9:49:42,강원특별자치도,춘천시,효자동,776-7
7937,또보기목장,국밥,식육(숯불구이),고기/구이,https://search.pstatic.net/common/?autoRotate=true&type=w560_sharpen&src=https%3A%2F%2Fldb-phinf.pstatic.net%2F20230201_258%2F1675257730103cxld0_JPEG%2FScreenshot_20230201_222014_Instagram.jpg,37.8544448,127.7465814,,,강원특별자치도 춘천시 석사동 830-3 (1층),2012-04-09,1,65.56,2021-04-11 22:45:07,강원특별자치도,춘천시,석사동,830-3 (1층)
9869,효자동설렁탕효자점,국밥,한식,양식,https://search.pstatic.net/common/?autoRotate=true&type=w560_sharpen&src=https%3A%2F%2Fldb-phinf.pstatic.net%2F20230317_83%2F1679043533249YoaWz_JPEG%2FIMG_6593.jpg,37.8663974,127.73304,,,강원특별자치도 춘천시 효자동 709-13,2014-02-13,1,41.9,2023-03-14 15:55:44,강원특별자치도,춘천시,효자동,709-13
11340,팔팔뚝배기,국밥,분식,기타,https://search.pstatic.net/common/?autoRotate=true&type=w560_sharpen&src=https%3A%2F%2Fldb-phinf.pstatic.net%2F20230406_161%2F1680718842589cgSVj_JPEG%2FScreenshot_20230406_031454_Samsung_Internet.jpg,37.8567677,127.7481828,,,강원특별자치도 춘천시 석사동 313-13,2017-10-11,1,61.77,2023-03-08 9:42:17,강원특별자치도,춘천시,석사동,313-13
10357,최고집순대국왕감자탕,국밥,기타,국밥,https://search.pstatic.net/common/?autoRotate=true&type=w560_sharpen&src=https%3A%2F%2Fldb-phinf.pstatic.net%2F20230628_129%2F1687918086616Xv0sN_JPEG%2FKakaoTalk_20230628_100737290.jpg,37.8760896,127.7353156,,,강원특별자치도 춘천시 효자동 654-3,2023-05-24,1,206.91,2023-06-05 10:47:12,강원특별자치도,춘천시,효자동,654-3
8325,오도순순대국,국밥,한식,국밥,https://search.pstatic.net/common/?autoRotate=true&type=w560_sharpen&src=https%3A%2F%2Fldb-phinf.pstatic.net%2F20230819_61%2F1692399272721W997O_JPEG%2F1692321161208.jpg,37.8519296,127.7455323,,,강원특별자치도 춘천시 석사동 890-2 (1층),2005-04-18,1,97.92,2023-05-15 16:43:41,강원특별자치도,춘천시,석사동,890-2 (1층)
11217,열정국밥,국밥,정종/대포집/소주방,기타,https://search.pstatic.net/common/?autoRotate=true&type=w560_sharpen&src=https%3A%2F%2Fldb-phinf.pstatic.net%2F20230920_105%2F1695195146036D8Bz2_JPEG%2Fimage.,37.8640998,127.7380339,,,강원특별자치도 춘천시 효자동 285-3,2021-09-08,1,66,2023-08-23 9:44:30,강원특별자치도,춘천시,효자동,285-3
11661,오돼지국밥,국밥,한식,기타,https://search.pstatic.net/common/?autoRotate=true&type=w560_sharpen&src=https%3A%2F%2Fldb-phinf.pstatic.net%2F20231003_115%2F1696292394113z8toN_JPEG%2Ftemp_file.jpg,37.874957,127.7405289,,,강원특별자치도 춘천시 효자동 615,2020-12-08,1,60,2022-01-20 9:45:50,강원특별자치도,춘천시,효자동,615
8625,백일칼국수춘천제면소,국수,한식,기타,https://search.pstatic.net/common/?autoRotate=true&quality=95&type=w750&src=https%3A%2F%2Fldb-phinf.pstatic.net%2F20230403_81%2F16805154904586jOtV_JPEG%2F%25B9%25E9%25C0%25CF.jpg,37.8693031,127.7256622,,,강원특별자치도 춘천시 효자동 590-12,2013-11-14,1,140.85,2022-01-19 14:10:58,강원특별자치도,춘천시,효자동,590-12
9429,밀밭해물칼국수,국수,한식,국수,https://search.pstatic.net/common/?autoRotate=true&type=w560_sharpen&src=https%3A%2F%2Fldb-phinf.pstatic.net%2F20150831_23%2F1440992436114LSlni_JPEG%2F106654496352523_0.jpg,37.8676953,127.7287877,,,강원특별자치도 춘천시 효자동 697-2,1998-04-11,1,67.78,2018-07-31 17:32:52,강원특별자치도,춘천시,효자동,697-2
8571,양구함흥손냉면,국수,한식,양식,https://search.pstatic.net/common/?autoRotate=true&type=w560_sharpen&src=https%3A%2F%2Fldb-phinf.pstatic.net%2F20150831_296%2F1441031813585Gz6zw_JPEG%2F12868940_0.jpg,37.8489991,127.7511091,,,강원특별자치도 춘천시 석사동 921-4 (1층),2006-11-06,1,104.58,2021-08-13 13:06:18,강원특별자치도,춘천시,석사동,921-4 (1층)
8902,동원칼국수,국수,한식,기타,https://search.pstatic.net/common/?autoRotate=true&type=w560_sharpen&src=https%3A%2F%2Fldb-phinf.pstatic.net%2F20150901_108%2F1441057606344AFzwJ_JPEG%2F96252606024273_0.jpg,37.8674189,127.7285158,,,강원특별자치도 춘천시 효자동 696-1,1997-10-10,1,55.5,2022-01-19 14:06:05,강원특별자치도,춘천시,효자동,696-1
8052,두하막국수,국수,한식,국수,https://search.pstatic.net/common/?autoRotate=true&type=w560_sharpen&src=https%3A%2F%2Fldb-phinf.pstatic.net%2F20170608_107%2F1496890364429PxTnc_JPEG%2FIMG_8260.jpg,37.8751809,127.7400201,,,강원특별자치도 춘천시 효자동 612-14 (1층),2008-12-09,1,112.36,2018-08-22 10:41:10,강원특별자치도,춘천시,효자동,612-14 (1층)
8760,연희내칼국수,국수,한식,기타,https://search.pstatic.net/common/?autoRotate=true&type=w560_sharpen&src=https%3A%2F%2Fldb-phinf.pstatic.net%2F20171025_144%2F1508896033109gAGrY_JPEG%2FHLVaX5OBY7GPd4KAtawfV9Hd.jpg,37.8656432,127.7318192,,,강원특별자치도 춘천시 효자동 712-20,2000-05-22,1,50.56,2022-01-21 17:47:09,강원특별자치도,춘천시,효자동,712-20
9003,청송막국수,국수,한식,국수,https://search.pstatic.net/common/?autoRotate=true&type=w560_sharpen&src=https%3A%2F%2Fldb-phinf.pstatic.net%2F20171218_227%2F1513562322120n9sNy_JPEG%2FoxCcjmyTTwz9QLJPMd9rlVva.jpg,37.8602848,127.7432541,,,강원특별자치도 춘천시 석사동 641,1992-12-30,1,110.59,2022-01-19 11:38:32,강원특별자치도,춘천시,석사동,641
9463,솔막국수,국수,한식,기타,https://search.pstatic.net/common/?autoRotate=true&type=w560_sharpen&src=https%3A%2F%2Fldb-phinf.pstatic.net%2F20171219_20%2F1513676709429Dp5tW_JPEG%2F4NPjEcGjRURmHce3l6PhVeWQ.jpg,37.8610607,127.7423307,,,강원특별자치도 춘천시 석사동 648-16,1999-03-08,1,115.47,2022-02-07 9:29:39,강원특별자치도,춘천시,석사동,648-16
10816,시골잔치국수,국수,분식,기타,https://search.pstatic.net/common/?autoRotate=true&type=w560_sharpen&src=https%3A%2F%2Fldb-phinf.pstatic.net%2F20180130_18%2F1517273042155OU581_JPEG%2FME3h-D6nni44bMtm4vEUIVwN.jpg,37.8737851,127.7345196,,,강원특별자치도 춘천시 효자동 140-5,2015-08-11,1,62.4,2019-05-21 16:33:39,강원특별자치도,춘천시,효자동,140-5
8424,화동손칼국수,국수,한식,국밥,https://search.pstatic.net/common/?autoRotate=true&type=w560_sharpen&src=https%3A%2F%2Fldb-phinf.pstatic.net%2F20180306_216%2F1520318145914f4sk6_JPEG%2F8e8ALYLxyp0GdJUw3P8G8yU7.jpg,37.8773845,127.7367677,,,강원특별자치도 춘천시 효자동 640-5,2005-03-17,1,98,2023-06-01 16:25:17,강원특별자치도,춘천시,효자동,640-5
8903,미도칼국수,국수,한식,기타,https://search.pstatic.net/common/?autoRotate=true&type=w560_sharpen&src=https%3A%2F%2Fldb-phinf.pstatic.net%2F20180314_162%2F1521001480367kzuCY_PNG%2FQyRCq0XiS_RyaGM4v5ZcSfuI.png,37.8716263,127.7333665,,,강원특별자치도 춘천시 효자동 666-20,1997-11-04,1,37.84,2022-01-19 14:06:28,강원특별자치도,춘천시,효자동,666-20
8824,원조남부막국수,국수,한식,국수,https://search.pstatic.net/common/?autoRotate=true&type=w560_sharpen&src=https%3A%2F%2Fldb-phinf.pstatic.net%2F20180530_133%2F15276574971968UWGp_JPEG%2FmZ-mWFD5LVHzbxcIBbMZ3nVq.jpg,37.8694792,127.7243415,,,강원특별자치도 춘천시 효자동 590-6,1990-10-16,1,145.85,2021-04-12 10:01:14,강원특별자치도,춘천시,효자동,590-6
9430,옛날잔치국수,국수,한식,국수,https://search.pstatic.net/common/?autoRotate=true&type=w560_sharpen&src=https%3A%2F%2Fldb-phinf.pstatic.net%2F20180706_172%2F1530852116378Vkh3q_JPEG%2FbC39Xbfg3O6kXxBSuCFIRmWf.jpg,37.8723033,127.7337953,,,강원특별자치도 춘천시 효자동 665-1,1998-11-16,1,26.6,2012-12-05 15:23:49,강원특별자치도,춘천시,효자동,665-1
8086,해안막국수,국수,한식,국수,https://search.pstatic.net/common/?autoRotate=true&type=w560_sharpen&src=https%3A%2F%2Fldb-phinf.pstatic.net%2F20190107_161%2F1546847220158xpMqv_JPEG%2FU3ZGKNv_5spugtA03zFRvwlS.jpg,37.8753217,127.7423623,,,강원특별자치도 춘천시 효자동 623-19,2002-06-05,1,59.38,2022-02-07 10:23:00,강원특별자치도,춘천시,효자동,623-19
10061,감자골옹심이,국수,한식,양식,https://search.pstatic.net/common/?autoRotate=true&type=w560_sharpen&src=https%3A%2F%2Fldb-phinf.pstatic.net%2F20190114_282%2F1547447912357cpsOB_JPEG%2FtH8xdMj_rmtQowcgQYO6gxq3.jpg,37.8667137,127.7291098,,,강원특별자치도 춘천시 효자동 696-7,1996-11-20,1,71.26,2021-12-21 19:16:49,강원특별자치도,춘천시,효자동,696-7
9126,산골손칼국수,국수,한식,국수,https://search.pstatic.net/common/?autoRotate=true&type=w560_sharpen&src=https%3A%2F%2Fldb-phinf.pstatic.net%2F20190124_152%2F1548329076189tG396_JPEG%2FoMvVP5X86mqyz_Dd78Sna760.jpg,37.8610426,127.7397094,,,강원특별자치도 춘천시 석사동 705-10,1992-06-22,1,39.6,2023-04-25 11:23:30,강원특별자치도,춘천시,석사동,705-10
11999,소담국시,국수,분식,기타,https://search.pstatic.net/common/?autoRotate=true&type=w560_sharpen&src=https%3A%2F%2Fldb-phinf.pstatic.net%2F20191016_277%2F15712285880324XEGx_JPEG%2Fe79GbSl_eeLSymCfjfbg3ktb.JPG.jpg,37.8671676,127.732279,,,강원특별자치도 춘천시 효자동 708-9 1층,2014-07-10,1,24,2018-12-12 14:08:14,강원특별자치도,춘천시,효자동,708-9 1층
9415,은혜네해물칼국수,국수,한식,국수,https://search.pstatic.net/common/?autoRotate=true&type=w560_sharpen&src=https%3A%2F%2Fldb-phinf.pstatic.net%2F20191121_109%2F1574335130669u656g_JPEG%2F4sN5S36vnWiwqSPMnxV2xM5V.JPG.jpg,37.866663,127.732146,,,강원특별자치도 춘천시 효자동 710,1999-05-11,1,37.8,2022-09-22 9:31:05,강원특별자치도,춘천시,효자동,710
7683,메밀밭감자옹심이메밀칼국수,국수,한식,양식,https://search.pstatic.net/common/?autoRotate=true&type=w560_sharpen&src=https%3A%2F%2Fldb-phinf.pstatic.net%2F20191127_40%2F1574837503286cnhVE_JPEG%2F1qpgc8cpfTMBo-izg2wWtxW-.jpg,37.8593513,127.7421985,,,강원특별자치도 춘천시 석사동 642-12,2005-07-15,1,132.48,2022-04-07 14:16:06,강원특별자치도,춘천시,석사동,642-12
12189,세할머니막국수,국수,한식,기타,https://search.pstatic.net/common/?autoRotate=true&type=w560_sharpen&src=https%3A%2F%2Fldb-phinf.pstatic.net%2F20210724_212%2F1627114274618xSAJG_JPEG%2Fo2zQscNoTZ_KQhlcNYG_ezC5.jpeg.jpg,37.8612805,127.7455456,,,강원특별자치도 춘천시 석사동 778-1,2018-12-05,1,167.24,2022-02-07 14:14:59,강원특별자치도,춘천시,석사동,778-1
7744,보영이네해물칼국수(별관),국수,분식,국수,https://search.pstatic.net/common/?autoRotate=true&type=w560_sharpen&src=https%3A%2F%2Fldb-phinf.pstatic.net%2F20221204_272%2F1670164636243X34az_JPEG%2F20221202_115330.jpg,37.8677791,127.72889,,,"강원특별자치도 춘천시 효자동 697-1 (2동,  1층)",2006-04-18,1,96,2018-07-31 17:32:01,강원특별자치도,춘천시,효자동,"697-1 (2동,  1층)"
10219,자매칼국수,국수,기타,국수,https://search.pstatic.net/common/?autoRotate=true&type=w560_sharpen&src=https%3A%2F%2Fldb-phinf.pstatic.net%2F20230505_208%2F1683271464413I5qtK_JPEG%2F20230429_141747.jpg,37.8719886,127.7355399,,,강원특별자치도 춘천시 효자동 154-22,2023-04-13,1,72.9,2023-04-26 9:42:41,강원특별자치도,춘천시,효자동,154-22
9301,효자동해물칼국수,국수,한식,기타,https://search.pstatic.net/common/?autoRotate=true&type=w560_sharpen&src=https%3A%2F%2Fldb-phinf.pstatic.net%2F20230607_182%2F168613551236772y7U_JPEG%2F20230526_110823.jpg,37.8671588,127.7295048,,,강원특별자치도 춘천시 효자동 697-20,2001-04-30,1,37.68,2023-05-04 10:05:53,강원특별자치도,춘천시,효자동,697-20
8799,반마리 닭국수,국수,횟집,양식,https://search.pstatic.net/common/?autoRotate=true&type=w560_sharpen&src=https%3A%2F%2Fldb-phinf.pstatic.net%2F20230710_19%2F1688962515850oCAM5_JPEG%2Fimage.jpg,37.8666409,127.7522109,,,강원특별자치도 춘천시 석사동 736-15,2001-10-29,1,88,2022-08-18 15:49:33,강원특별자치도,춘천시,석사동,736-15
12375,이모네칼국수,국수,한식,기타,https://search.pstatic.net/common/?autoRotate=true&type=w560_sharpen&src=https%3A%2F%2Fldb-phinf.pstatic.net%2F20231022_72%2F1697966907240pm1Qy_JPEG%2FKakaoTalk_20231022_181446010_05.jpg,37.8501409,127.7501206,,,강원특별자치도 춘천시 석사동 911-1,2023-10-11,1,71.26,2023-10-18 9:14:36,강원특별자치도,춘천시,석사동,911-1
11691,가미칼국수,국수,한식,기타,https://search.pstatic.net/common/?autoRotate=true&type=w560_sharpen&src=https%3A%2F%2Fldb-phinf.pstatic.net%2F20231024_170%2F1698117533317xAMfP_JPEG%2FIMG_0094.jpeg,37.8756731,127.7433961,,,강원특별자치도 춘천시 효자동 18-42,2021-07-02,1,90.42,2023-10-11 11:15:34,강원특별자치도,춘천시,효자동,18-42
10784,알라딘,기타,기타,기타,https://search.pstatic.net/common/?autoRotate=true&quality=95&type=w750&src=https%3A%2F%2Fldb-phinf.pstatic.net%2F20181231_34%2F1546227598365ENV8b_JPEG%2FcLwjh6o3Wg_aWswe76L2a_Ta.jpg,37.8726919,127.7453151,,,강원특별자치도 춘천시 효자동 632-26,2022-11-10,1,126.28,2022-11-14 14:17:51,강원특별자치도,춘천시,효자동,632-26
9216,푸드엠에이,기타,분식,기타,https://search.pstatic.net/common/?autoRotate=true&type=w560_sharpen&src=https%3A%2F%2Fldb-phinf.pstatic.net%2F20211130_184%2F1638276994928d9Hbb_JPEG%2FPslnJn-4QTLFkJGy0pYbTxnC.jpg,37.8665832,127.7375324,,,강원특별자치도 춘천시 효자동 176-62,1995-11-10,1,30.67,2021-11-04 9:27:59,강원특별자치도,춘천시,효자동,176-62
10972,하이홀덤춘천점,기타,기타,기타,https://search.pstatic.net/common/?autoRotate=true&type=w560_sharpen&src=https%3A%2F%2Fldb-phinf.pstatic.net%2F20220127_13%2F1643282209774YKpzq_JPEG%2FKakaoTalk_20220110_223047874.jpg,37.8737965,127.7426188,,,강원특별자치도 춘천시 효자동 626-25,2022-01-17,1,165.18,2022-02-15 13:31:42,강원특별자치도,춘천시,효자동,626-25
11310,푸드랜드,기타,식육(숯불구이),기타,https://search.pstatic.net/common/?autoRotate=true&type=w560_sharpen&src=https%3A%2F%2Fldb-phinf.pstatic.net%2F20220331_123%2F1648719185393h6gBU_JPEG%2F%25C7%25AA%25B5%25E5%25B7%25A3%25B5%25E5.jpg,37.8590921,127.7415506,,,강원특별자치도 춘천시 석사동 651-10,2015-07-08,1,61.56,2022-01-20 16:15:11,강원특별자치도,춘천시,석사동,651-10
11577,돈나와라뚝딱석사점,기타,한식,기타,https://search.pstatic.net/common/?autoRotate=true&type=w560_sharpen&src=https%3A%2F%2Fldb-phinf.pstatic.net%2F20220813_83%2F1660387508382x6Poz_JPEG%2F%25B5%25B7%25B6%25D2.jpg,37.8613773,127.7424633,,,강원특별자치도 춘천시 석사동 639-3,2022-07-26,1,80.08,2022-08-01 17:54:30,강원특별자치도,춘천시,석사동,639-3
10701,하이홀덤 퇴계점,기타,기타,기타,https://search.pstatic.net/common/?autoRotate=true&type=w560_sharpen&src=https%3A%2F%2Fldb-phinf.pstatic.net%2F20221026_25%2F1666782101100v1hpS_JPEG%2FKakaoTalk_20221026_163647246_05.jpg,37.8567369,127.7401894,,,강원특별자치도 춘천시 석사동 807-1 남부새마을금고석사지점,2022-09-26,1,104.93,2022-12-08 10:43:24,강원특별자치도,춘천시,석사동,807-1 남부새마을금고석사지점
9543,봄내골프클럽,기타,기타,기타,https://search.pstatic.net/common/?autoRotate=true&type=w560_sharpen&src=https%3A%2F%2Fldb-phinf.pstatic.net%2F20221102_114%2F1667337580066XuCkT_JPEG%2F%25BA%25BD%25B3%25BB%25BD%25BA%25C5%25A9%25B8%25B0.jpg,37.862848,127.7398895,,,강원특별자치도 춘천시 효자동 223-1 2층,2010-07-01,1,78.8,2023-02-01 15:38:40,강원특별자치도,춘천시,효자동,223-1 2층
11517,케이푸드,기타,분식,기타,https://search.pstatic.net/common/?autoRotate=true&type=w560_sharpen&src=https%3A%2F%2Fldb-phinf.pstatic.net%2F20221102_233%2F1667341255843QAJvz_JPEG%2Fk.jpg,37.862534,127.7393284,,,강원특별자치도 춘천시 석사동 694-2 석사근로복지아파트,2015-04-29,1,60.64,2022-01-19 15:05:52,강원특별자치도,춘천시,석사동,694-2 석사근로복지아파트
7650,잭밀러,기타,경양식,기타,https://search.pstatic.net/common/?autoRotate=true&type=w560_sharpen&src=https%3A%2F%2Fldb-phinf.pstatic.net%2F20230320_238%2F1679322804313IpPO0_JPEG%2F20230228_211319.jpg,37.8489698,127.7497224,,,강원특별자치도 춘천시 석사동 940-1 (1층),2010-04-02,1,115.92,2017-11-28 15:14:26,강원특별자치도,춘천시,석사동,940-1 (1층)
10496,시즌즈(SEASONS),기타,기타,양식,https://search.pstatic.net/common/?autoRotate=true&type=w560_sharpen&src=https%3A%2F%2Fldb-phinf.pstatic.net%2F20230517_187%2F1684318718028j750U_JPEG%2FIMG_8335.jpeg,37.8779686,127.7375969,,,강원특별자치도 춘천시 효자동 744,2023-05-04,1,26.01,2023-05-04 15:04:41,강원특별자치도,춘천시,효자동,744
12190,TRAM(트램),기타,기타,기타,https://search.pstatic.net/common/?autoRotate=true&type=w560_sharpen&src=https%3A%2F%2Fldb-phinf.pstatic.net%2F20230518_58%2F1684379101984QVNF5_JPEG%2FKakaoTalk_20230518_120240875_01.jpg,37.8498059,127.7494576,,,강원특별자치도 춘천시 석사동 909-6,2018-12-06,1,114.85,2021-12-22 9:49:09,강원특별자치도,춘천시,석사동,909-6
10793,오늘키친,기타,기타,기타,https://search.pstatic.net/common/?autoRotate=true&type=w560_sharpen&src=https%3A%2F%2Fldb-phinf.pstatic.net%2F20230522_139%2F1684737556795ySQjS_JPEG%2F004.jpg,37.8645882,127.7362579,,,강원특별자치도 춘천시 효자동 325-12,2022-11-17,1,19.8,2023-03-27 14:48:27,강원특별자치도,춘천시,효자동,325-12
11805,더만찬,기타,한식,기타,https://search.pstatic.net/common/?autoRotate=true&type=w560_sharpen&src=https%3A%2F%2Fldb-phinf.pstatic.net%2F20230819_212%2F1692450052486BvEWp_JPEG%2FKakaoTalk_20230818_210315500_01.jpg,37.8558565,127.7452385,,,강원특별자치도 춘천시 석사동 818-10,2021-01-27,1,70.46,2021-05-14 14:17:17,강원특별자치도,춘천시,석사동,818-10
7544,베러인타임(better in time),기타,한식,양식,https://search.pstatic.net/common/?autoRotate=true&type=w560_sharpen&src=https%3A%2F%2Fldb-phinf.pstatic.net%2F20230823_93%2F1692777380198X9K8u_JPEG%2F1000001434.jpg,37.8606319,127.7435896,,,강원특별자치도 춘천시 석사동 640-10,2023-07-27,1,82.88,2023-08-08 17:22:04,강원특별자치도,춘천시,석사동,640-10
7547,왕가탕후루 강원대점,기타,기타,기타,https://search.pstatic.net/common/?autoRotate=true&type=w560_sharpen&src=https%3A%2F%2Fldb-phinf.pstatic.net%2F20230924_22%2F1695540252350Fbhmf_JPEG%2F1000005485.jpg,37.8730008,127.7449182,,,강원특별자치도 춘천시 효자동 632,2023-09-11,1,20,2023-09-20 10:42:38,강원특별자치도,춘천시,효자동,632
7566,피콜로,기타,기타,고기/구이,https://search.pstatic.net/common/?autoRotate=true&type=w560_sharpen&src=https%3A%2F%2Fldb-phinf.pstatic.net%2F20231210_264%2F1702164302289jLPeq_JPEG%2FIMG_2797.jpeg,37.8488341,127.7491642,,,강원특별자치도 춘천시 석사동 186-36,2023-08-29,1,129.6,2023-10-23 17:01:45,강원특별자치도,춘천시,석사동,186-36
8454,황가네돈까스,돈까스,한식,국밥,https://search.pstatic.net/common/?autoRotate=true&type=w560_sharpen&src=https%3A%2F%2Fldb-phinf.pstatic.net%2F20170530_115%2F1496125725075xbIA2_JPEG%2F1.jpg,37.8574807,127.7441308,,,강원특별자치도 춘천시 석사동 662-4,2012-09-13,1,31.92,2019-01-10 14:27:12,강원특별자치도,춘천시,석사동,662-4
9691,신촌돈까스,돈까스,경양식,국수,https://search.pstatic.net/common/?autoRotate=true&type=w560_sharpen&src=https%3A%2F%2Fldb-phinf.pstatic.net%2F20190105_218%2F1546618088373tCd3i_JPEG%2Fb-eLaULQuX4RuFs7baitwzHT.jpg,37.8733747,127.7451501,,,강원특별자치도 춘천시 효자동 631,2003-04-11,1,42.37,2017-07-21 11:57:14,강원특별자치도,춘천시,효자동,631
10917,피플스클럽,돈까스,기타,중식,https://search.pstatic.net/common/?autoRotate=true&type=w560_sharpen&src=https%3A%2F%2Fldb-phinf.pstatic.net%2F20190725_86%2F1564043396547qrHp9_JPEG%2FoEB2nTwu_hZQ7_V4SoLBBrSL.jpeg.jpg,37.8653113,127.7516325,,,강원특별자치도 춘천시 석사동 742-10,2015-01-19,1,107.8,2021-12-19 16:54:12,강원특별자치도,춘천시,석사동,742-10
10989,애막골상회,돈까스,경양식,고기/구이,https://search.pstatic.net/common/?autoRotate=true&type=w560_sharpen&src=https%3A%2F%2Fldb-phinf.pstatic.net%2F20200325_63%2F1585114811731FVn8J_JPEG%2FvNSwjaxzfiaGeBFDBznRRFxe.jpg,37.8652724,127.7525652,,,강원특별자치도 춘천시 석사동 744-9,2020-02-20,1,48.3,2021-12-19 16:54:33,강원특별자치도,춘천시,석사동,744-9
9656,만나돈가스,돈까스,한식,분식,https://search.pstatic.net/common/?autoRotate=true&type=w560_sharpen&src=https%3A%2F%2Fldb-phinf.pstatic.net%2F20220718_111%2F1658117541522f7oV0_JPEG%2Fimage.jpg,37.8667959,127.7378987,,,강원특별자치도 춘천시 효자동 176-73 (1층),2002-10-02,1,45.76,2022-09-28 10:22:04,강원특별자치도,춘천시,효자동,176-73 (1층)
8371,돈카돈까(퇴계점),돈까스,경양식,피자,https://search.pstatic.net/common/?autoRotate=true&type=w560_sharpen&src=https%3A%2F%2Fldb-phinf.pstatic.net%2F20220917_279%2F16634182177999gklp_JPEG%2F20220917_211310.jpg,37.8515684,127.7442226,,,강원특별자치도 춘천시 석사동 880-3 (종로타워201호),2006-01-02,1,145,2021-08-31 14:10:43,강원특별자치도,춘천시,석사동,880-3 (종로타워201호)
12071,돈카춘춘천점,돈까스,분식,기타,https://search.pstatic.net/common/?autoRotate=true&type=w560_sharpen&src=https%3A%2F%2Fldb-phinf.pstatic.net%2F20230320_267%2F1679284870092MJa0y_JPEG%2F1_%25B8%25DE%25C0%25CE.jpg,37.8763605,127.7368382,,,강원특별자치도 춘천시 효자동 643-9,2021-06-01,1,31.59,2023-02-14 13:48:26,강원특별자치도,춘천시,효자동,643-9
7502,백돈춘천점,돈까스,기타,기타,https://search.pstatic.net/common/?autoRotate=true&type=w560_sharpen&src=https%3A%2F%2Fldb-phinf.pstatic.net%2F20230907_49%2F1694064543748rw43d_JPEG%2F1694064501184.jpg,37.8594451,127.7401659,,,강원특별자치도 춘천시 석사동 654-19,2023-08-16,1,86.13,2023-08-16 14:35:53,강원특별자치도,춘천시,석사동,654-19
11132,남부전집,백반,정종/대포집/소주방,기타,https://search.pstatic.net/common/?autoRotate=true&quality=95&type=w750&src=https%3A%2F%2Fldb-phinf.pstatic.net%2F20230305_173%2F16779888173390BtrK_JPEG%2F20230224_202050.jpg,37.8705461,127.7256128,,,강원특별자치도 춘천시 효자동 684-11,2015-07-27,1,42.27,2022-01-20 16:16:53,강원특별자치도,춘천시,효자동,684-11
10234,밥풀릭스춘천점,백반,기타,기타,https://search.pstatic.net/common/?autoRotate=true&quality=95&type=w750&src=https%3A%2F%2Fldb-phinf.pstatic.net%2F20230103_184%2F1672731780418nfNpQ_JPEG%2F%25C3%25E1%25C3%25B5%25C1%25A1_%25C1%25F6%25C1%25A1%25BB%25E7%25C1%25F8.jpg,37.8749893,127.7416471,,,강원특별자치도 춘천시 효자동 614-14,2022-12-14,1,74.11,2022-12-14 15:56:03,강원특별자치도,춘천시,효자동,614-14
10679,온반,백반,기타,기타,https://search.pstatic.net/common/?autoRotate=true&quality=95&type=w750&src=https%3A%2F%2Fldb-phinf.pstatic.net%2F20231013_123%2F1697192384547awXa6_JPEG%2F1697192356267.jpg,37.8719402,127.7277152,,,강원특별자치도 춘천시 효자동 540-2,2023-03-30,1,81.32,2023-09-05 15:30:10,강원특별자치도,춘천시,효자동,540-2
7900,미미한식,백반,분식,양식,https://search.pstatic.net/common/?autoRotate=true&type=w560_sharpen&src=https%3A%2F%2Fldb-phinf.pstatic.net%2F20161010_266%2F1476027022478TN6FR_JPEG%2F176960406041797_0.jpeg,37.8659196,127.7507517,,,강원특별자치도 춘천시 석사동 740-12 (1층),2007-04-05,1,54,2016-09-12 14:15:21,강원특별자치도,춘천시,석사동,740-12 (1층)
9210,시골촌두부,백반,한식,기타,https://search.pstatic.net/common/?autoRotate=true&type=w560_sharpen&src=https%3A%2F%2Fldb-phinf.pstatic.net%2F20170324_146%2F1490316103638YuAT9_JPEG%2Fimage.,37.8474952,127.7543418,,,강원특별자치도 춘천시 석사동 164-1,1999-04-23,1,37.16,2023-02-22 13:36:54,강원특별자치도,춘천시,석사동,164-1
9886,특별미기사식당,백반,한식,백반,https://search.pstatic.net/common/?autoRotate=true&type=w560_sharpen&src=https%3A%2F%2Fldb-phinf.pstatic.net%2F20170419_246%2F1492583534141viJfr_JPEG%2F3.jpg,37.8672853,127.7295899,,,강원특별자치도 춘천시 효자동 697-21,2009-10-26,1,219.1,2017-11-28 15:55:09,강원특별자치도,춘천시,효자동,697-21
7609,한아름밥상,백반,식육(숯불구이),고기/구이,https://search.pstatic.net/common/?autoRotate=true&type=w560_sharpen&src=https%3A%2F%2Fldb-phinf.pstatic.net%2F20171031_34%2F1509438360036NUpdd_JPEG%2F5c5yOzPGx7tWmwXPUCILDZcW.jpg,37.8657444,127.7316459,,,강원특별자치도 춘천시 효자동 712-27,2010-05-10,1,43.9,2015-09-01 13:28:14,강원특별자치도,춘천시,효자동,712-27
9549,허수아비,백반,호프/통닭,기타,https://search.pstatic.net/common/?autoRotate=true&type=w560_sharpen&src=https%3A%2F%2Fldb-phinf.pstatic.net%2F20171117_262%2F15108949097543yJ6b_JPEG%2FLYH0Q_QLGVJpCpUMAqgj2kAe.jpg,37.8612742,127.7416526,,,강원특별자치도 춘천시 석사동 697-2,2011-02-24,1,60.3,2015-05-12 10:23:14,강원특별자치도,춘천시,석사동,697-2
8786,만석식당(강원대점),백반,한식,고기/구이,https://search.pstatic.net/common/?autoRotate=true&type=w560_sharpen&src=https%3A%2F%2Fldb-phinf.pstatic.net%2F20181222_165%2F15454799999437QFcE_JPEG%2FHNp6Kgn_xY6NllXT5SzTBsEU.jpg,37.8734188,127.7444241,,,강원특별자치도 춘천시 효자동 629-15,1995-09-30,1,91.34,2022-12-21 10:42:06,강원특별자치도,춘천시,효자동,629-15
9033,어우러지,백반,호프/통닭,기타,https://search.pstatic.net/common/?autoRotate=true&type=w560_sharpen&src=https%3A%2F%2Fldb-phinf.pstatic.net%2F20181223_237%2F1545542229188jUTnz_JPEG%2FyhNQwjE8IHrx15duVnEH3Exm.jpg,37.8726398,127.7455395,,,강원특별자치도 춘천시 효자동 632-27,1991-03-15,1,31.2,2021-12-18 17:54:54,강원특별자치도,춘천시,효자동,632-27
8431,엄마생각,백반,기타,기타,https://search.pstatic.net/common/?autoRotate=true&type=w560_sharpen&src=https%3A%2F%2Fldb-phinf.pstatic.net%2F20181227_207%2F1545910647795iH9Qn_JPEG%2FPzsYGuvAUPRSaCaWk0-3Ji2t.jpg,37.854461,127.7487816,,,강원특별자치도 춘천시 석사동 283-15 삼익세라믹상가 104호,2011-07-08,1,27.36,2022-01-19 11:47:25,강원특별자치도,춘천시,석사동,283-15 삼익세라믹상가104호
8362,밥보네집,백반,한식,기타,https://search.pstatic.net/common/?autoRotate=true&type=w560_sharpen&src=https%3A%2F%2Fldb-phinf.pstatic.net%2F20190107_238%2F1546842864919tC7KI_JPEG%2F8MlnJGqkuKAe5jBYJ61Z2_Em.jpg,37.8727837,127.7450953,,,"강원특별자치도 춘천시 효자동 632 (3동,1층)",2004-05-07,1,18.32,2023-04-28 15:24:24,강원특별자치도,춘천시,효자동,"632 (3동,1층)"
7686,형제식당,백반,한식,기타,https://search.pstatic.net/common/?autoRotate=true&type=w560_sharpen&src=https%3A%2F%2Fldb-phinf.pstatic.net%2F20190114_63%2F15474435363689c5BG_JPEG%2FyvuZhTYCs7q4Ro3xNBkfrrWJ.jpg,37.8670525,127.7325279,,,강원특별자치도 춘천시 효자동 709-11,1985-12-31,1,50,2022-12-07 10:54:48,강원특별자치도,춘천시,효자동,709-11
8807,우람식당,백반,분식,기타,https://search.pstatic.net/common/?autoRotate=true&type=w560_sharpen&src=https%3A%2F%2Fldb-phinf.pstatic.net%2F20190115_239%2F1547534119085NKwqe_JPEG%2FhmCCpiddK2MlBrpVPI-cSBG6.jpg,37.8700831,127.7254771,,,강원특별자치도 춘천시 효자동 683-16,1992-04-23,1,21.35,2022-01-19 11:37:30,강원특별자치도,춘천시,효자동,683-16
9055,대경식당,백반,한식,기타,https://search.pstatic.net/common/?autoRotate=true&type=w560_sharpen&src=https%3A%2F%2Fldb-phinf.pstatic.net%2F20190730_246%2F1564482611500B8uk5_JPEG%2F0ccT6NNiPlwE18k8wA5eETpy.jpg,37.8696558,127.7263661,,,강원특별자치도 춘천시 효자동 686-2,1999-05-11,1,77.01,2022-11-04 14:56:41,강원특별자치도,춘천시,효자동,686-2
9417,용수골순두부,백반,한식,기타,https://search.pstatic.net/common/?autoRotate=true&type=w560_sharpen&src=https%3A%2F%2Fldb-phinf.pstatic.net%2F20190905_192%2F1567674153377D4QlC_JPEG%2FKT9mOjMYajAFLRl0RxpOqDeF.jpg,37.872091,127.7352708,,,강원특별자치도 춘천시 효자동 153-1,1999-08-10,1,26.79,2022-02-07 9:27:30,강원특별자치도,춘천시,효자동,153-1
11348,이모네밥상,백반,한식,기타,https://search.pstatic.net/common/?autoRotate=true&type=w560_sharpen&src=https%3A%2F%2Fldb-phinf.pstatic.net%2F20191226_29%2F1577340488537yBTWQ_JPEG%2FeamIdsb5H5P-XRB91JtCigFK.jpg,37.8493996,127.7506373,,,강원특별자치도 춘천시 석사동 915-8,2019-09-09,1,111.54,2022-02-07 10:46:59,강원특별자치도,춘천시,석사동,915-8
9296,은하식당,백반,한식,기타,https://search.pstatic.net/common/?autoRotate=true&type=w560_sharpen&src=https%3A%2F%2Fldb-phinf.pstatic.net%2F20200322_156%2F1584873338686bOlNA_JPEG%2FkxKXfsDY5FG1ZcrlXEamyB1d.jpg,37.8705461,127.7256128,,,강원특별자치도 춘천시 효자동 684-11,1987-03-20,1,15.27,2011-11-24 10:14:19,강원특별자치도,춘천시,효자동,684-11
9727,밀보리식당,백반,한식,기타,https://search.pstatic.net/common/?autoRotate=true&type=w560_sharpen&src=https%3A%2F%2Fldb-phinf.pstatic.net%2F20200506_149%2F1588691019488FcB95_JPEG%2FI_z5b8zkZ1Ih_ZbciIUUcZfr.jpg,37.866444,127.7319515,,,강원특별자치도 춘천시 효자동 710-4,2013-12-12,1,58.67,2022-01-19 14:14:24,강원특별자치도,춘천시,효자동,710-4
9526,가정식당,백반,한식,기타,https://search.pstatic.net/common/?autoRotate=true&type=w560_sharpen&src=https%3A%2F%2Fldb-phinf.pstatic.net%2F20200523_151%2F1590206532929tkDjv_JPEG%2FUdHHsI0c6G6VtpyLxRZWAHMb.jpeg.jpg,37.856873,127.7504777,,,강원특별자치도 춘천시 석사동 111-9,2003-04-17,1,74.76,2022-02-07 10:38:15,강원특별자치도,춘천시,석사동,111-9
11331,웰빙한정식소반,백반,한식,기타,https://search.pstatic.net/common/?autoRotate=true&type=w560_sharpen&src=https%3A%2F%2Fldb-phinf.pstatic.net%2F20200607_9%2F1591485602476gcXVD_JPEG%2FcSGGvR3WOr4uznPwCKi_hhdf.jpg,37.8484747,127.7525801,,,강원특별자치도 춘천시 석사동 961-2,2016-04-04,1,107.16,2018-02-01 11:16:23,강원특별자치도,춘천시,석사동,961-2
12169,진본식당,백반,한식,기타,https://search.pstatic.net/common/?autoRotate=true&type=w560_sharpen&src=https%3A%2F%2Fldb-phinf.pstatic.net%2F20210204_271%2F1612413661314FejCi_JPEG%2FD7pw6WiqxHgEt_ry-XmkZ6iK.jpg,37.869956,127.7374144,,,강원특별자치도 춘천시 효자동 820 신아아파트,2018-10-31,1,81.49,2020-12-28 10:03:51,강원특별자치도,춘천시,효자동,820 신아아파트
9469,모녀밥상,백반,한식,양식,https://search.pstatic.net/common/?autoRotate=true&type=w560_sharpen&src=https%3A%2F%2Fldb-phinf.pstatic.net%2F20220413_299%2F1649827916982uy2cG_JPEG%2FIMG_20220413_143133.jpg,37.8687414,127.7283064,,,강원특별자치도 춘천시 효자동 691-10,2008-02-28,1,90.36,2022-11-25 13:09:44,강원특별자치도,춘천시,효자동,691-10
12130,해월,백반,한식,기타,https://search.pstatic.net/common/?autoRotate=true&type=w560_sharpen&src=https%3A%2F%2Fldb-phinf.pstatic.net%2F20220605_273%2F16544257013873VFWa_JPEG%2F%25C7%25D8%25BF%25F9.jpg,37.8620308,127.7404974,,,강원특별자치도 춘천시 석사동 695-6,2022-03-30,1,132.96,2022-04-04 17:08:58,강원특별자치도,춘천시,석사동,695-6
11820,이선생푸드,백반,한식,기타,https://search.pstatic.net/common/?autoRotate=true&type=w560_sharpen&src=https%3A%2F%2Fldb-phinf.pstatic.net%2F20220607_213%2F1654563601930dVAvF_JPEG%2FIMG_20220510_102847_%25282%2529.jpg,37.8779991,127.7394114,,,강원특별자치도 춘천시 효자동 748-15,2017-03-31,1,69.56,2022-02-07 16:44:18,강원특별자치도,춘천시,효자동,748-15
8765,정담은,백반,한식,양식,https://search.pstatic.net/common/?autoRotate=true&type=w560_sharpen&src=https%3A%2F%2Fldb-phinf.pstatic.net%2F20220728_266%2F16589908006526KMgL_JPEG%2F20220728_093837.jpg,37.8760077,127.7446869,,,강원특별자치도 춘천시 효자동 18-61,1984-02-27,1,78.18,2022-04-07 13:59:33,강원특별자치도,춘천시,효자동,18-61
9897,미소네,백반,정종/대포집/소주방,기타,https://search.pstatic.net/common/?autoRotate=true&type=w560_sharpen&src=https%3A%2F%2Fldb-phinf.pstatic.net%2F20230305_8%2F16779891942113yNpO_JPEG%2F20230224_202144.jpg,37.8705461,127.7256128,,,강원특별자치도 춘천시 효자동 684-11,2004-01-02,1,40.41,2019-11-25 15:37:34,강원특별자치도,춘천시,효자동,684-11
12220,참조은보리밥,백반,한식,기타,https://search.pstatic.net/common/?autoRotate=true&type=w560_sharpen&src=https%3A%2F%2Fldb-phinf.pstatic.net%2F20230415_195%2F1681489249857FWnRC_JPEG%2F20230414_193859.jpg,37.8721906,127.7352244,,,강원특별자치도 춘천시 효자동 150-14,2017-03-16,1,74.24,2020-05-11 11:02:43,강원특별자치도,춘천시,효자동,150-14
8027,송탄햄버거,버거,패스트푸드,버거,https://search.pstatic.net/common/?autoRotate=true&type=w560_sharpen&src=https%3A%2F%2Fldb-phinf.pstatic.net%2F20170601_66%2F14963102023902s9hO_JPEG%2F20170501_083534.jpg,37.8732647,127.7437194,,,"강원특별자치도 춘천시 효자동 628-5 (1층, 3동)",2006-02-22,1,32,2016-02-25 15:44:23,강원특별자치도,춘천시,효자동,"628-5 (1층, 3동)"
11236,어반벨리(Urban Belly),버거,분식,버거,https://search.pstatic.net/common/?autoRotate=true&type=w560_sharpen&src=https%3A%2F%2Fldb-phinf.pstatic.net%2F20190117_32%2F1547659624461PDWRt_JPEG%2FyJ1L7yaWGGQepNCbePudl1uj.jpg,37.8682937,127.7311163,,,강원특별자치도 춘천시 효자동 700-10,2018-09-21,1,18,2020-08-27 16:57:31,강원특별자치도,춘천시,효자동,700-10
11810,뉴욕쟁이디저트강원대점,버거,기타,기타,https://search.pstatic.net/common/?autoRotate=true&type=w560_sharpen&src=https%3A%2F%2Fldb-phinf.pstatic.net%2F20210323_229%2F1616474329829XqDy9_JPEG%2FviaC_FCbyPSGDBR4LrKgB_Jg.jpg,37.8748962,127.7429334,,,강원특별자치도 춘천시 효자동 624-6,2021-02-03,1,51.13,2023-09-22 9:23:30,강원특별자치도,춘천시,효자동,624-6
10213,오더히어버거,버거,기타,버거,https://search.pstatic.net/common/?autoRotate=true&type=w560_sharpen&src=https%3A%2F%2Fldb-phinf.pstatic.net%2F20231205_256%2F1701771123669XMBuj_JPEG%2F6174CC82-FB81-4788-BEC0-B38F1D9617DF.jpeg,37.8644844,127.7334983,,,강원특별자치도 춘천시 효자동 367-28 윤일아파트,2023-03-15,1,23.94,2023-04-12 9:45:47,강원특별자치도,춘천시,효자동,367-28 윤일아파트
11578,라면먹고갈래?,분식,분식,기타,https://search.pstatic.net/common/?autoRotate=true&quality=95&type=w750&src=https%3A%2F%2Fldb-phinf.pstatic.net%2F20221031_39%2F1667175541120G2mBk_JPEG%2FIMG_20221029_110330.jpg,37.8663608,127.7371639,,,강원특별자치도 춘천시 효자동 176-12,2022-08-29,1,29.76,2022-09-02 9:42:08,강원특별자치도,춘천시,효자동,176-12
10593,코끼리김밥,분식,김밥(도시락),기타,https://search.pstatic.net/common/?autoRotate=true&quality=95&type=w750&src=https%3A%2F%2Fldb-phinf.pstatic.net%2F20230923_298%2F1695438520426zkVpu_JPEG%2F62DC0B0D-0B5C-4B34-8CC2-3F7053A4EC14.jpeg,37.8577148,127.7442044,,,강원특별자치도 춘천시 석사동 667-8,2022-12-23,1,47.56,2022-12-29 17:20:36,강원특별자치도,춘천시,석사동,667-8
11431,가리미김밥석사세경점,분식,분식,기타,https://search.pstatic.net/common/?autoRotate=true&type=w560_sharpen&src=https%3A%2F%2Fldb-phinf.pstatic.net%2F20170313_208%2F14893954367469U5ih_JPEG%2Fimage.,37.8633406,127.7362326,,,강원특별자치도 춘천시 효자동 300-24,2016-03-15,1,86.24,2022-01-20 17:22:08,강원특별자치도,춘천시,효자동,300-24
12249,나들김밥,분식,분식,기타,https://search.pstatic.net/common/?autoRotate=true&type=w560_sharpen&src=https%3A%2F%2Fldb-phinf.pstatic.net%2F20170510_114%2F1494397879862npj4p_JPEG%2F186460556137.jpg,37.8510526,127.7520616,,,강원특별자치도 춘천시 석사동 115-10,2017-04-20,1,30,2017-04-20 15:47:25,강원특별자치도,춘천시,석사동,115-10
11291,동이만두,분식,분식,기타,https://search.pstatic.net/common/?autoRotate=true&type=w560_sharpen&src=https%3A%2F%2Fldb-phinf.pstatic.net%2F20170530_95%2F14961254767614nFtx_JPEG%2Fimage.,37.871004,127.7370307,,,강원특별자치도 춘천시 효자동 162-6,2014-04-17,1,39.78,2014-05-03 12:42:45,강원특별자치도,춘천시,효자동,162-6
9728,가리미김밥봄내점,분식,김밥(도시락),기타,https://search.pstatic.net/common/?autoRotate=true&type=w560_sharpen&src=https%3A%2F%2Fldb-phinf.pstatic.net%2F20171020_193%2F1508459220637j4wCP_JPEG%2F1wywkb7fCMYJMVK-sJOgzjSd.jpg,37.8565632,127.7425857,,,강원특별자치도 춘천시 석사동 796-15,2004-02-06,1,64.07,2021-12-19 16:59:03,강원특별자치도,춘천시,석사동,796-15
10155,김밥나라봄내초교점,분식,한식,기타,https://search.pstatic.net/common/?autoRotate=true&type=w560_sharpen&src=https%3A%2F%2Fldb-phinf.pstatic.net%2F20171020_252%2F1508459082475PuD54_JPEG%2FKjwHm78Hy2n0c5NSLvxlO4pl.jpg,37.8564961,127.7428421,,,강원특별자치도 춘천시 석사동 818-1,2023-03-08,1,59.69,2023-03-14 17:30:24,강원특별자치도,춘천시,석사동,818-1
9311,김밥천국,분식,한식,국수,https://search.pstatic.net/common/?autoRotate=true&type=w560_sharpen&src=https%3A%2F%2Fldb-phinf.pstatic.net%2F20171127_194%2F1511744448131vc9qt_JPEG%2FkGF0rWhFYkpu3D7Z83cL9u4E.jpg,37.8563578,127.7433711,,,강원특별자치도 춘천시 석사동 818-3,2001-01-26,1,78.59,2019-04-08 10:03:18,강원특별자치도,춘천시,석사동,818-3
12105,엄마의손길,분식,분식,기타,https://search.pstatic.net/common/?autoRotate=true&type=w560_sharpen&src=https%3A%2F%2Fldb-phinf.pstatic.net%2F20180109_1%2F1515465019348hVHA5_JPEG%2F1NmRBS9psxk5C80l-9i7pWp1.jpg,37.8629721,127.7394561,,,강원특별자치도 춘천시 효자동 279-9,2015-12-10,1,67.28,2015-12-10 15:12:40,강원특별자치도,춘천시,효자동,279-9
9394,팔호스넥,분식,분식,양식,https://search.pstatic.net/common/?autoRotate=true&type=w560_sharpen&src=https%3A%2F%2Fldb-phinf.pstatic.net%2F20180810_220%2F1533865283532G4UuU_JPEG%2FxhWpOucWTy-06NKxoNQvce65.jpg,37.8770297,127.7356791,,,강원특별자치도 춘천시 효자동 641-3,1988-11-02,1,0,2022-01-18 14:44:40,강원특별자치도,춘천시,효자동,641-3
8513,봉실스넥2,분식,분식,기타,https://search.pstatic.net/common/?autoRotate=true&type=w560_sharpen&src=https%3A%2F%2Fldb-phinf.pstatic.net%2F20181223_123%2F1545565047685WeHsc_JPEG%2FNNE6N7S7rH1YP8vNbsGBUipE.jpg,37.8732505,127.7450681,,,강원특별자치도 춘천시 효자동 631-13 (3동),2003-03-05,1,50.45,2018-02-26 12:54:24,강원특별자치도,춘천시,효자동,631-13 (3동)
9101,봉실스넥,분식,분식,양식,https://search.pstatic.net/common/?autoRotate=true&type=w560_sharpen&src=https%3A%2F%2Fldb-phinf.pstatic.net%2F20181223_123%2F1545565047685WeHsc_JPEG%2FNNE6N7S7rH1YP8vNbsGBUipE.jpg,37.8732505,127.7450681,,,강원특별자치도 춘천시 효자동 631-13,1998-09-02,1,43.37,2022-09-22 10:58:59,강원특별자치도,춘천시,효자동,631-13
12266,땡촌닭발애막골점,분식,한식,기타,https://search.pstatic.net/common/?autoRotate=true&type=w560_sharpen&src=https%3A%2F%2Fldb-phinf.pstatic.net%2F20190109_45%2F15470429244857cH7k_JPEG%2Fy0uSAH-Nqvdn3c_CqcDObZiW.jpg,37.8666326,127.7531178,,,강원특별자치도 춘천시 석사동 735-5,2018-12-14,1,52.32,2018-12-14 11:05:29,강원특별자치도,춘천시,석사동,735-5
8892,김밥세상,분식,분식,양식,https://search.pstatic.net/common/?autoRotate=true&type=w560_sharpen&src=https%3A%2F%2Fldb-phinf.pstatic.net%2F20190109_71%2F1546984886416oLtUV_JPEG%2FXI0xLfn3hXuH4F9Sls9JL2bD.jpg,37.8579209,127.7462048,,,강원특별자치도 춘천시 석사동 311-5,2001-04-16,1,31.39,2015-10-07 15:52:09,강원특별자치도,춘천시,석사동,311-5
8939,불닭발동대문엽기떡볶이강원대점,분식,분식,기타,https://search.pstatic.net/common/?autoRotate=true&type=w560_sharpen&src=https%3A%2F%2Fldb-phinf.pstatic.net%2F20190125_186%2F1548344201498nwyE4_JPEG%2Fr92CJQTTMBAaFm7F4beIa3l_.jpg,37.8729397,127.7452911,,,강원특별자치도 춘천시 효자동 632-7,2001-03-17,1,95.29,2022-02-07 9:46:28,강원특별자치도,춘천시,효자동,632-7
8860,혜리네스넥,분식,분식,분식,https://search.pstatic.net/common/?autoRotate=true&type=w560_sharpen&src=https%3A%2F%2Fldb-phinf.pstatic.net%2F20190529_204%2F1559140323548WgUxG_JPEG%2FjYvuDJ4CHrdQRHFsSa4IB60Z.jpg,37.8671482,127.7547409,,,강원특별자치도 춘천시 석사동 726-7,1999-02-12,1,31.6,2022-02-07 9:29:17,강원특별자치도,춘천시,석사동,726-7
12309,김밥킹석사점,분식,기타,기타,https://search.pstatic.net/common/?autoRotate=true&type=w560_sharpen&src=https%3A%2F%2Fldb-phinf.pstatic.net%2F20190812_49%2F1565617083563uUKoa_JPEG%2FJd0e2TYtT4hOy8MXmiurjBAE.jpg,37.8519598,127.7450796,,,강원특별자치도 춘천시 석사동 888-1,2019-08-08,1,52,2021-10-27 13:13:34,강원특별자치도,춘천시,석사동,888-1
10452,광판팔뚝김밥교대점,분식,호프/통닭,기타,https://search.pstatic.net/common/?autoRotate=true&type=w560_sharpen&src=https%3A%2F%2Fldb-phinf.pstatic.net%2F20200618_227%2F1592480761928o4OQn_JPEG%2F8UAG2QLVGzQDjZ345BPu_XE2.jpg,37.8563467,127.7466362,,,강원특별자치도 춘천시 석사동 682-1 석사신우아파트,2019-04-03,1,28,2022-02-07 13:53:26,강원특별자치도,춘천시,석사동,682-1 석사신우아파트
11474,품은김밥,분식,분식,기타,https://search.pstatic.net/common/?autoRotate=true&type=w560_sharpen&src=https%3A%2F%2Fldb-phinf.pstatic.net%2F20201116_1%2F1605525336839BAK34_JPEG%2FRyF2MI__MsFr7g-5oquzsrMy.jpeg.jpg,37.8599782,127.7438074,,,강원특별자치도 춘천시 석사동 433-3,2020-11-09,1,36.49,2022-01-20 9:36:40,강원특별자치도,춘천시,석사동,433-3
10833,김밥이선생,분식,분식,양식,https://search.pstatic.net/common/?autoRotate=true&type=w560_sharpen&src=https%3A%2F%2Fldb-phinf.pstatic.net%2F20210116_96%2F1610802493754fRuIG_JPEG%2F-wp-8bHYb7PcjHLDQx-KwyLj.jpg,37.8650245,127.7359226,,,강원특별자치도 춘천시 효자동 315-4,2021-01-07,1,20.89,2022-01-20 9:56:09,강원특별자치도,춘천시,효자동,315-4
11714,오떡,분식,분식,기타,https://search.pstatic.net/common/?autoRotate=true&type=w560_sharpen&src=https%3A%2F%2Fldb-phinf.pstatic.net%2F20210124_56%2F1611477075995VvncD_JPEG%2Fc7aIMCP82ylZF4OYKAgDF33b.jpg,37.8740396,127.7411823,,,강원특별자치도 춘천시 효자동 617-4,2014-08-05,1,44.94,2021-01-05 10:39:32,강원특별자치도,춘천시,효자동,617-4
11036,심가당,분식,분식,분식,https://search.pstatic.net/common/?autoRotate=true&type=w560_sharpen&src=https%3A%2F%2Fldb-phinf.pstatic.net%2F20220106_110%2F1641463491252vziMD_JPEG%2FKakaoTalk_20201120_140720303.jpg,37.8774366,127.7379982,,,강원특별자치도 춘천시 효자동 743,2020-04-28,1,101.84,2022-10-24 17:36:34,강원특별자치도,춘천시,효자동,743
9519,고봉민김밥인춘천석사점,분식,분식,돈까스,https://search.pstatic.net/common/?autoRotate=true&type=w560_sharpen&src=https%3A%2F%2Fldb-phinf.pstatic.net%2F20220214_87%2F16448042313851HqxD_PNG%2F%25C0%25DA%25BB%25EA_1.png,37.8515684,127.7442226,,,강원특별자치도 춘천시 석사동 880-3 종로타워101호,2013-11-20,1,45.5,2016-12-13 13:48:18,강원특별자치도,춘천시,석사동,880-3 종로타워101호
10967,청년분식춘천점,분식,분식,분식,https://search.pstatic.net/common/?autoRotate=true&type=w560_sharpen&src=https%3A%2F%2Fldb-phinf.pstatic.net%2F20220319_206%2F1647667143025Uim17_JPEG%2F20220317_111039.jpg,37.8577306,127.7431622,,,강원특별자치도 춘천시 석사동 663-7,2022-01-10,1,56.25,2022-01-26 9:21:35,강원특별자치도,춘천시,석사동,663-7
8595,이타리아떡볶이,분식,분식,기타,https://search.pstatic.net/common/?autoRotate=true&type=w560_sharpen&src=https%3A%2F%2Fldb-phinf.pstatic.net%2F20220718_171%2F16581494135050plPN_JPEG%2FResized_20220718_215515.jpeg,37.8727704,127.7402823,,,강원특별자치도 춘천시 효자동 769,1993-07-20,1,17.2,2022-01-19 11:49:02,강원특별자치도,춘천시,효자동,769
8017,오늘김밥,분식,김밥(도시락),기타,https://search.pstatic.net/common/?autoRotate=true&type=w560_sharpen&src=https%3A%2F%2Fldb-phinf.pstatic.net%2F20220808_199%2F16599475241352jQhg_JPEG%2FF00A4CA6-8DBA-4542-892A-E2F522002C43.jpeg,37.8653739,127.734739,,,강원특별자치도 춘천시 효자동 305-5,2007-10-17,1,52.08,2022-05-11 17:43:23,강원특별자치도,춘천시,효자동,305-5
11562,광판팔뚝김밥엔타점,분식,분식,기타,https://search.pstatic.net/common/?autoRotate=true&type=w560_sharpen&src=https%3A%2F%2Fldb-phinf.pstatic.net%2F20220904_206%2F16622811503641QlMe_JPEG%2F%25B1%25A4%25C6%25C7%25C6%25C8%25B6%25D2%25B1%25E8%25B9%25E4.jpg,37.8632764,127.748095,,,강원특별자치도 춘천시 석사동 980,2022-05-11,1,18.3,2023-02-27 15:30:43,강원특별자치도,춘천시,석사동,980
10877,착한마약규토스트,분식,분식,양식,https://search.pstatic.net/common/?autoRotate=true&type=w560_sharpen&src=https%3A%2F%2Fldb-phinf.pstatic.net%2F20230313_11%2F167867250248641fsr_JPEG%2FKakaoTalk_20230313_103355852_03.jpg,37.8745015,127.7426887,,,강원특별자치도 춘천시 효자동 619-13,2019-06-12,1,47.65,2023-03-03 9:41:15,강원특별자치도,춘천시,효자동,619-13
7605,김밥나라애막골점,분식,분식,기타,https://search.pstatic.net/common/?autoRotate=true&type=w560_sharpen&src=https%3A%2F%2Fldb-phinf.pstatic.net%2F20230322_129%2F1679450989073l25lW_JPEG%2F20230304_121823.jpg,37.8681843,127.7536906,,,강원특별자치도 춘천시 석사동 727-5 진흥@상가106호,2012-07-12,1,23.02,2022-01-19 13:18:06,강원특별자치도,춘천시,석사동,727-5 진흥@상가106호
8817,벨몽드본점김밥,분식,분식,기타,https://search.pstatic.net/common/?autoRotate=true&type=w560_sharpen&src=https%3A%2F%2Fldb-phinf.pstatic.net%2F20230609_263%2F16863080957627IQaH_JPEG%2F20230606_211029_HDR.jpg,37.8770056,127.7360176,,,강원특별자치도 춘천시 효자동 641-5,2000-01-08,1,11.7,2023-03-23 14:31:26,강원특별자치도,춘천시,효자동,641-5
10236,타코페퍼,분식,기타,고기/구이,https://search.pstatic.net/common/?autoRotate=true&type=w560_sharpen&src=https%3A%2F%2Fldb-phinf.pstatic.net%2F20230701_198%2F16882165895058ExDE_JPEG%2F20230630_225546.jpg,37.8626414,127.7489481,,,강원특별자치도 춘천시 석사동 769-2,2023-01-25,1,45.92,2023-06-16 13:54:35,강원특별자치도,춘천시,석사동,769-2
10642,호로롱김밥,분식,식육(숯불구이),양식,https://search.pstatic.net/common/?autoRotate=true&type=w560_sharpen&src=https%3A%2F%2Fldb-phinf.pstatic.net%2F20230804_213%2F1691103582024iOkF6_JPEG%2F20230731_111852.jpg,37.8759331,127.744335,,,강원특별자치도 춘천시 효자동 18-57,2014-12-02,1,119.91,2023-06-29 11:59:59,강원특별자치도,춘천시,효자동,18-57
7542,못생긴핫도그,분식,한식,기타,https://search.pstatic.net/common/?autoRotate=true&type=w560_sharpen&src=https%3A%2F%2Fldb-phinf.pstatic.net%2F20230809_82%2F1691572827116ITnjR_JPEG%2FKakaoTalk_20230809_165235174.jpg,37.8760883,127.7375541,,,강원특별자치도 춘천시 효자동 604-2,2023-06-30,1,26.25,2023-07-24 17:49:01,강원특별자치도,춘천시,효자동,604-2
9542,명랑시대쌀핫도그강원대점,분식,분식,양식,https://search.pstatic.net/common/?autoRotate=true&type=w560_sharpen&src=https%3A%2F%2Fldb-phinf.pstatic.net%2F20230912_177%2F1694483641035g26zG_JPEG%2F%25B8%25ED%25B6%25FB%25C7%25D6%25B5%25B5%25B1%25D7_%25B7%25CE%25B0%25ED.jpg,37.8727234,127.7451796,,,"강원특별자치도 춘천시 효자동 632-15 ,26, 27(1층)",2003-12-05,1,43,2022-02-07 10:54:42,강원특별자치도,춘천시,효자동,"632-15 ,26, 27(1층)"
7868,미화네떡볶이,분식,분식,기타,https://search.pstatic.net/common/?autoRotate=true&type=w560_sharpen&src=https%3A%2F%2Fldb-phinf.pstatic.net%2F20230929_24%2F1695989707802gQjEc_JPEG%2F1695988753300.jpg,37.8733208,127.7428475,,,"강원특별자치도 춘천시 효자동 627-6 (3동, 1층)",2006-02-17,1,24.25,2022-10-20 16:17:26,강원특별자치도,춘천시,효자동,"627-6 (3동, 1층)"
8187,레드립(Red Lip),술집,감성주점,기타,https://search.pstatic.net/common/?autoRotate=true&quality=95&type=w750&src=https%3A%2F%2Fldb-phinf.pstatic.net%2F20170731_173%2F15014810119378QEaJ_JPEG%2F186681553351.jpg,37.8505109,127.7496138,,,강원특별자치도 춘천시 석사동 907-10 (1층),2009-07-08,1,96.3,2017-07-21 13:33:52,강원특별자치도,춘천시,석사동,907-10 (1층)
8183,쏘마,술집,호프/통닭,기타,https://search.pstatic.net/common/?autoRotate=true&quality=95&type=w750&src=https%3A%2F%2Fldb-phinf.pstatic.net%2F20190325_222%2F1553504366293KwvVf_JPEG%2FzwUXwbgmoBmbwBIFpYfz3sAW.jpeg.jpg,37.870285,127.7273189,,,강원특별자치도 춘천시 효자동 673-12,2009-06-11,1,26.6,2021-12-23 17:08:10,강원특별자치도,춘천시,효자동,673-12
8253,홍탁삼합,술집,정종/대포집/소주방,기타,https://search.pstatic.net/common/?autoRotate=true&quality=95&type=w750&src=https%3A%2F%2Fldb-phinf.pstatic.net%2F20201210_111%2F1607544832526OHRLy_JPEG%2FsJp_lD54P0LPfzLKVGNeg6dj.jpg,37.8650479,127.7516139,,,강원특별자치도 춘천시 석사동 747-4,2008-06-05,1,48.5,2020-06-29 16:45:14,강원특별자치도,춘천시,석사동,747-4
9480,술또,술집,호프/통닭,기타,https://search.pstatic.net/common/?autoRotate=true&quality=95&type=w750&src=https%3A%2F%2Fldb-phinf.pstatic.net%2F20230210_149%2F1676033137787jGlNJ_JPEG%2F%25BC%25FA%25B6%25C7.jpg,37.8742934,127.7414063,,,강원특별자치도 춘천시 효자동 618-3 (3동 2층),2008-03-06,1,80.4,2012-12-11 16:42:07,강원특별자치도,춘천시,효자동,618-3 (3동 2층)
10232,인생물음표,술집,기타,기타,https://search.pstatic.net/common/?autoRotate=true&quality=95&type=w750&src=https%3A%2F%2Fldb-phinf.pstatic.net%2F20230223_205%2F1677116134396FBpYH_JPEG%2F20221229_181013.jpg,37.873485,127.7431832,,,강원특별자치도 춘천시 효자동 626-9,2022-12-14,1,51.3,2022-12-14 14:02:04,강원특별자치도,춘천시,효자동,626-9
10207,배꼽시계,술집,한식,기타,https://search.pstatic.net/common/?autoRotate=true&quality=95&type=w750&src=https%3A%2F%2Fldb-phinf.pstatic.net%2F20230311_145%2F1678520056899FsoSy_JPEG%2F20230308_173524.jpg,37.8600322,127.739918,,,강원특별자치도 춘천시 석사동 707-6,2023-03-09,1,39.56,2023-03-16 16:51:38,강원특별자치도,춘천시,석사동,707-6
9972,그레이존,술집,경양식,기타,https://search.pstatic.net/common/?autoRotate=true&quality=95&type=w750&src=https%3A%2F%2Fldb-phinf.pstatic.net%2F20230509_199%2F1683608495790k0SFn_JPEG%2FIMG_2065.jpeg,37.8638526,127.7491657,,,강원특별자치도 춘천시 석사동 767-1,2011-03-29,1,33.98,2023-04-26 17:24:52,강원특별자치도,춘천시,석사동,767-1
10484,짝꿍,술집,호프/통닭,기타,https://search.pstatic.net/common/?autoRotate=true&quality=95&type=w750&src=https%3A%2F%2Fldb-phinf.pstatic.net%2F20230621_27%2F1687336578366FUt1M_JPEG%2F20230621_164323.jpg,37.8598554,127.742771,,,강원특별자치도 춘천시 석사동 641-7,2022-09-21,1,66,2023-05-24 13:23:25,강원특별자치도,춘천시,석사동,641-7
9306,파라다이스,술집,한식,기타,https://search.pstatic.net/common/?autoRotate=true&quality=95&type=w750&src=https%3A%2F%2Fldb-phinf.pstatic.net%2F20230629_58%2F16880329030714oMCL_JPEG%2F%25B4%25D9%25BF%25EE%25B7%25CE%25B5%25E5.jpg,37.8733523,127.7445783,,,강원특별자치도 춘천시 효자동 629-20,1996-08-17,1,61.4,2023-02-09 11:21:38,강원특별자치도,춘천시,효자동,629-20
10199,우리동네전포차,술집,한식,치킨,https://search.pstatic.net/common/?autoRotate=true&quality=95&type=w750&src=https%3A%2F%2Fldb-phinf.pstatic.net%2F20230808_61%2F1691454969125zfPup_JPEG%2F20230808_084509.jpg,37.8607572,127.7411536,,,강원특별자치도 춘천시 석사동 698-1,2022-06-03,1,47,2023-07-31 17:08:04,강원특별자치도,춘천시,석사동,698-1
8379,기막힌밥상,술집,정종/대포집/소주방,기타,https://search.pstatic.net/common/?autoRotate=true&quality=95&type=w750&src=https%3A%2F%2Fldb-phinf.pstatic.net%2F20231122_177%2F1700639963080zUgWV_JPEG%2F%25B3%25D7%25C0%25CC%25B9%25F6%25BD%25BA%25B8%25B6%25C6%25AE%25C7%25C3%25B7%25B9%25C0%25CC%25BD%25BA-%25B4%25EB%25C7%25A5%25B7%25CE%25B0%25ED.jpg,37.8578971,127.7425763,,,강원특별자치도 춘천시 석사동 663-3 (1층),2011-08-03,1,66.36,2023-09-25 13:38:30,강원특별자치도,춘천시,석사동,663-3 (1층)
11428,고은이네,술집,기타,기타,https://search.pstatic.net/common/?autoRotate=true&type=w560_sharpen&src=https%3A%2F%2Fldb-phinf.pstatic.net%2F20160321_294%2F1458527263392NaA01_JPEG%2F176266553024982_0.jpeg,37.8607559,127.7431888,,,강원특별자치도 춘천시 석사동 644,2016-03-11,1,25.98,2022-01-20 17:20:53,강원특별자치도,춘천시,석사동,644
9532,치치,술집,한식,중식,https://search.pstatic.net/common/?autoRotate=true&type=w560_sharpen&src=https%3A%2F%2Fldb-phinf.pstatic.net%2F20160813_215%2F14710515948108K2hl_JPEG%2F176763505654306_0.jpeg,37.87329,127.7441973,,,강원특별자치도 춘천시 효자동 628-12,2008-04-18,1,104.78,2022-02-09 17:15:08,강원특별자치도,춘천시,효자동,628-12
7599,토대력남부시장점(투다리남부시장점),술집,한식,기타,https://search.pstatic.net/common/?autoRotate=true&type=w560_sharpen&src=https%3A%2F%2Fldb-phinf.pstatic.net%2F20160921_154%2F1474448047859DJuHj_JPEG%2F176871578427321_0.jpeg,37.870719,127.7251936,,,강원특별자치도 춘천시 효자동 684-3,2006-12-27,1,76.05,2013-06-11 14:48:57,강원특별자치도,춘천시,효자동,684-3
9374,토대력(춘천점),술집,정종/대포집/소주방,양식,https://search.pstatic.net/common/?autoRotate=true&type=w560_sharpen&src=https%3A%2F%2Fldb-phinf.pstatic.net%2F20160921_154%2F1474448047859DJuHj_JPEG%2F176871578427321_0.jpeg,37.8725953,127.7342091,,,강원특별자치도 춘천시 효자동 148-12,1984-06-16,1,87.69,2023-10-26 14:22:20,강원특별자치도,춘천시,효자동,148-12
9813,더술(The Sul),술집,정종/대포집/소주방,기타,https://search.pstatic.net/common/?autoRotate=true&type=w560_sharpen&src=https%3A%2F%2Fldb-phinf.pstatic.net%2F20161201_198%2F14805243024561sSpQ_JPEG%2F177151417521325_0.jpeg,37.8556591,127.7458286,,,강원특별자치도 춘천시 석사동 818-12,2013-01-31,1,62.72,2020-08-31 10:49:13,강원특별자치도,춘천시,석사동,818-12
9030,좌우당간,술집,정종/대포집/소주방,기타,https://search.pstatic.net/common/?autoRotate=true&type=w560_sharpen&src=https%3A%2F%2Fldb-phinf.pstatic.net%2F20170329_254%2F1490767026314Bwae4_JPEG%2F186279548725881_0.jpg,37.8687452,127.7303422,,,강원특별자치도 춘천시 효자동 700-5,1991-11-18,1,0,2022-01-19 11:29:30,강원특별자치도,춘천시,효자동,700-5
8717,아무거나,술집,한식,양식,https://search.pstatic.net/common/?autoRotate=true&type=w560_sharpen&src=https%3A%2F%2Fldb-phinf.pstatic.net%2F20170404_218%2F1491280613626Nn2qQ_JPEG%2F186354536673_0.jpg,37.8600282,127.742962,,,강원특별자치도 춘천시 석사동 641-9,1999-07-10,1,73.25,2018-06-15 10:04:06,강원특별자치도,춘천시,석사동,641-9
8630,빨간장화,술집,까페,기타,https://search.pstatic.net/common/?autoRotate=true&type=w560_sharpen&src=https%3A%2F%2Fldb-phinf.pstatic.net%2F20170516_189%2F1494903624446EU7lV_JPEG%2F186466523043453_0.jpg,37.8486945,127.7515138,,,강원특별자치도 춘천시 석사동 923-5 (1층),2007-08-03,1,113.55,2023-10-31 11:09:55,강원특별자치도,춘천시,석사동,923-5 (1층)
8967,대박네집,술집,한식,기타,https://search.pstatic.net/common/?autoRotate=true&type=w560_sharpen&src=https%3A%2F%2Fldb-phinf.pstatic.net%2F20170626_23%2F14984729409203YJnA_JPEG%2F186576595920688_0.jpg,37.8691609,127.7304191,,,강원특별자치도 춘천시 효자동 700-20,1983-06-09,1,27.93,2021-12-21 19:18:24,강원특별자치도,춘천시,효자동,700-20
9303,로맨스호프,술집,한식,기타,https://search.pstatic.net/common/?autoRotate=true&type=w560_sharpen&src=https%3A%2F%2Fldb-phinf.pstatic.net%2F20170701_232%2F14989015388400x97K_JPEG%2F186651586238672_0.jpg,37.873077,127.733699,,,강원특별자치도 춘천시 효자동 661-16,2001-06-13,1,51.61,2012-12-12 10:43:40,강원특별자치도,춘천시,효자동,661-16
9874,홍가스무숲점,술집,식육(숯불구이),백반,https://search.pstatic.net/common/?autoRotate=true&type=w560_sharpen&src=https%3A%2F%2Fldb-phinf.pstatic.net%2F20170701_296%2F1498902490239GxP5f_JPEG%2F186651587830003_0.jpg,37.8488262,127.7506365,,,강원특별자치도 춘천시 석사동 927-2 (1층),2006-06-12,1,133.12,2018-06-19 16:14:52,강원특별자치도,춘천시,석사동,927-2 (1층)
8121,"더플레이스,곶",술집,호프/통닭,기타,https://search.pstatic.net/common/?autoRotate=true&type=w560_sharpen&src=https%3A%2F%2Fldb-phinf.pstatic.net%2F20170707_176%2F1499416868540EAtGg_JPEG%2FCYMERA_20161220_195750.jpg,37.8745162,127.74213,,,강원특별자치도 춘천시 효자동 619-6,2009-09-16,1,197.17,2019-05-03 17:06:17,강원특별자치도,춘천시,효자동,619-6
7808,친구친구,술집,분식,고기/구이,https://search.pstatic.net/common/?autoRotate=true&type=w560_sharpen&src=https%3A%2F%2Fldb-phinf.pstatic.net%2F20170925_144%2F1506329943634Bc836_JPEG%2F95bPNhz7_zPFxHL0MRsPT2mP.jpg,37.8723352,127.7348133,,,강원특별자치도 춘천시 효자동 150-15 외 1필지,2008-01-14,1,92.4,2023-10-26 14:23:00,강원특별자치도,춘천시,효자동,150-15 외 1필지
8798,향토마을,술집,한식,기타,https://search.pstatic.net/common/?autoRotate=true&type=w560_sharpen&src=https%3A%2F%2Fldb-phinf.pstatic.net%2F20180206_219%2F1517885847445qPauh_JPEG%2F1ux5qw4ZYPQSvdwkc1HmhZl5.jpg,37.8609528,127.7428678,,,강원특별자치도 춘천시 석사동 645,2001-10-24,1,50.19,2021-12-19 16:38:35,강원특별자치도,춘천시,석사동,645
12287,골목길포차,술집,정종/대포집/소주방,기타,https://search.pstatic.net/common/?autoRotate=true&type=w560_sharpen&src=https%3A%2F%2Fldb-phinf.pstatic.net%2F20180417_39%2F1523935281645swvho_JPEG%2FhY-o_bHmN9tOp9ieIy_zOjDC.jpg,37.8742836,127.7343944,,,강원특별자치도 춘천시 효자동 660-13,2018-05-11,1,32.4,2022-02-07 14:59:55,강원특별자치도,춘천시,효자동,660-13
9817,쪼끼쪼끼(석사3호점),술집,호프/통닭,치킨,https://search.pstatic.net/common/?autoRotate=true&type=w560_sharpen&src=https%3A%2F%2Fldb-phinf.pstatic.net%2F20180710_297%2F1531210768004ES9pq_JPEG%2FpqJBMwEvh1QC3RfmhGO9B9pu.jpg,37.8514352,127.7449184,,,"강원특별자치도 춘천시 석사동 888-3 (화인프라자106호,107호)",2004-10-28,1,100.98,2020-06-25 15:24:03,강원특별자치도,춘천시,석사동,"888-3 (화인프라자 106호,107호)"
9418,썬호프,술집,호프/통닭,양식,https://search.pstatic.net/common/?autoRotate=true&type=w560_sharpen&src=https%3A%2F%2Fldb-phinf.pstatic.net%2F20180717_230%2F1531790625500vjx4g_JPEG%2FqRZl_ln3X_6HNNgXZTkEqZ6T.jpg,37.8661085,127.7328001,,,강원특별자치도 춘천시 효자동 710-14,1999-09-13,1,35.48,2012-12-12 9:55:38,강원특별자치도,춘천시,효자동,710-14
9646,황토주막,술집,한식,치킨,https://search.pstatic.net/common/?autoRotate=true&type=w560_sharpen&src=https%3A%2F%2Fldb-phinf.pstatic.net%2F20180809_205%2F1533780133704r2mU1_JPEG%2F94MSq0ReTUFx8HxEeMucyrPD.jpg,37.8699753,127.7384149,,,강원특별자치도 춘천시 효자동 180-10 외1필지.1층,2005-10-10,1,82.63,2023-07-19 13:42:31,강원특별자치도,춘천시,효자동,180-10 외1필지.1층
12217,조박사춘천옥돌포차,술집,정종/대포집/소주방,기타,https://search.pstatic.net/common/?autoRotate=true&type=w560_sharpen&src=https%3A%2F%2Fldb-phinf.pstatic.net%2F20181221_101%2F1545344454082rtbHH_JPEG%2FkazqKxfj-X4KhL_40m9BptSy.jpg,37.8593803,127.74087,,,강원특별자치도 춘천시 석사동 651-16,2017-03-13,1,72.54,2018-04-18 10:45:31,강원특별자치도,춘천시,석사동,651-16
9741,서래맥주집,술집,호프/통닭,고기/구이,https://search.pstatic.net/common/?autoRotate=true&type=w560_sharpen&src=https%3A%2F%2Fldb-phinf.pstatic.net%2F20181222_117%2F15454765297707DCzm_JPEG%2FAgVCR94GH6SrSvaMB0FJMVXk.jpg,37.8741557,127.7422889,,,"강원특별자치도 춘천시 효자동 618-14 (2동,1층)",2005-10-21,1,100.08,2022-02-07 11:46:29,강원특별자치도,춘천시,효자동,"618-14 (2동,1층)"
9422,주동아리,술집,경양식,치킨,https://search.pstatic.net/common/?autoRotate=true&type=w560_sharpen&src=https%3A%2F%2Fldb-phinf.pstatic.net%2F20181222_169%2F1545479357288U67dq_JPEG%2Fomp-tiC2fyRIGySS7Gnh3nwp.jpg,37.873521,127.7437557,,,강원특별자치도 춘천시 효자동 628,1990-09-22,1,64.07,2022-06-30 7:14:58,강원특별자치도,춘천시,효자동,628
9922,쏠라시,술집,라이브카페,기타,https://search.pstatic.net/common/?autoRotate=true&type=w560_sharpen&src=https%3A%2F%2Fldb-phinf.pstatic.net%2F20181222_180%2F15454893332178SH15_JPEG%2FFAnNIWgaf-YMLL52ZTuVv1sG.jpg,37.8542826,127.7471581,,,강원특별자치도 춘천시 석사동 832-2,2013-12-02,1,109.48,2023-05-10 14:42:00,강원특별자치도,춘천시,석사동,832-2
7875,리얼R콜,술집,감성주점,양식,https://search.pstatic.net/common/?autoRotate=true&type=w560_sharpen&src=https%3A%2F%2Fldb-phinf.pstatic.net%2F20181222_39%2F1545480157213nG7uu_JPEG%2FpLgn6d2pcv_CFp0FUIZ_IQ5i.jpg,37.8731891,127.7444193,,,강원특별자치도 춘천시 효자동 628-17 (2층),2009-08-04,1,115.07,2021-01-12 10:09:02,강원특별자치도,춘천시,효자동,628-17 (2층)
8231,미스타빈,술집,호프/통닭,양식,https://search.pstatic.net/common/?autoRotate=true&type=w560_sharpen&src=https%3A%2F%2Fldb-phinf.pstatic.net%2F20181224_70%2F1545603938580SakIz_JPEG%2FxuK4Ck90PAue2BJgHSw38A_t.jpg,37.8667217,127.7523015,,,강원특별자치도 춘천시 석사동 736-16,1994-09-02,1,0,2021-04-28 10:07:19,강원특별자치도,춘천시,석사동,736-16
8435,간이역효자역점,술집,호프/통닭,고기/구이,https://search.pstatic.net/common/?autoRotate=true&type=w560_sharpen&src=https%3A%2F%2Fldb-phinf.pstatic.net%2F20190107_60%2F1546862174577uFlKM_JPEG%2F39lrwkcsCTcqclR9_lW-jIUT.jpg,37.8710464,127.7320353,,,"강원특별자치도 춘천시 효자동 668-2 (2동, 1층)",2006-01-09,1,32.76,2012-12-12 16:41:28,강원특별자치도,춘천시,효자동,"668-2 (2동, 1층)"
11256,트링켄74(TrinKen74),술집,통닭(치킨),기타,https://search.pstatic.net/common/?autoRotate=true&type=w560_sharpen&src=https%3A%2F%2Fldb-phinf.pstatic.net%2F20190107_80%2F15468605409340aV2m_JPEG%2FrAoC7dFMt9ihrMHm2RFV2mo-.jpg,37.853315,127.7413897,,,강원특별자치도 춘천시 석사동 866-3,2015-03-31,1,36,2020-10-13 16:47:49,강원특별자치도,춘천시,석사동,866-3
9278,청사초롱,술집,기타,기타,https://search.pstatic.net/common/?autoRotate=true&type=w560_sharpen&src=https%3A%2F%2Fldb-phinf.pstatic.net%2F20190110_187%2F1547074886184ggzKs_JPEG%2FMnNAMGlOFEbFONoW_t7AeKOb.jpg,37.8705461,127.7256128,,,강원특별자치도 춘천시 효자동 684-11,2000-11-16,1,29.59,2022-01-21 17:46:38,강원특별자치도,춘천시,효자동,684-11
8685,옥탑방오봉자싸롱,술집,정종/대포집/소주방,기타,https://search.pstatic.net/common/?autoRotate=true&type=w560_sharpen&src=https%3A%2F%2Fldb-phinf.pstatic.net%2F20190110_35%2F1547122307874mxuXF_JPEG%2FMyNOvrkMVg0TVoKNwjcMNAnU.jpg,37.8673937,127.7529719,,,"강원특별자치도 춘천시 석사동 728-7 (1층, 좌측)",2002-11-25,1,48,2018-05-04 14:58:03,강원특별자치도,춘천시,석사동,"728-7 (1층, 좌측)"
8994,화사랑,술집,호프/통닭,양식,https://search.pstatic.net/common/?autoRotate=true&type=w560_sharpen&src=https%3A%2F%2Fldb-phinf.pstatic.net%2F20190112_70%2F1547221657957PsBDU_JPEG%2Fp7HmemiM-g3FHmkp8WOzm7kq.jpg,37.8658869,127.7528864,,,강원특별자치도 춘천시 석사동 734-11,1998-11-03,1,38.95,2021-12-20 14:33:37,강원특별자치도,춘천시,석사동,734-11
11914,마음이머무는곳,술집,한식,기타,https://search.pstatic.net/common/?autoRotate=true&type=w560_sharpen&src=https%3A%2F%2Fldb-phinf.pstatic.net%2F20190119_255%2F1547858907614bBOuw_JPEG%2Fo5-xEPLXt2j64e3dBXzx27Uq.jpg,37.8705461,127.7256128,,,"강원특별자치도 춘천시 효자동 684-11 남부시장지하1층 24,25호",2016-02-23,1,40.7,2022-01-20 17:09:24,강원특별자치도,춘천시,효자동,"684-11 남부시장지하1층24,25호"
12344,써나비어2013,술집,정종/대포집/소주방,기타,https://search.pstatic.net/common/?autoRotate=true&type=w560_sharpen&src=https%3A%2F%2Fldb-phinf.pstatic.net%2F20190119_89%2F1547890285178gTn9N_JPEG%2FhH-wNW3WcSkUSt-WcCFZQVvD.jpg,37.8660567,127.7530799,,,강원특별자치도 춘천시 석사동 734-9,2018-12-19,1,115.92,2022-02-07 14:13:24,강원특별자치도,춘천시,석사동,734-9
10131,낭만의거리,술집,기타,기타,https://search.pstatic.net/common/?autoRotate=true&type=w560_sharpen&src=https%3A%2F%2Fldb-phinf.pstatic.net%2F20190124_102%2F1548325460972c3aFO_JPEG%2FXTU_HHV-ShqXWlPGF9hJ6XVg.jpg,37.8592606,127.7420963,,,강원특별자치도 춘천시 석사동 642-11 (1층),2014-09-23,1,66,2022-01-19 14:44:53,강원특별자치도,춘천시,석사동,642-11 (1층)
8321,나들목주당,술집,정종/대포집/소주방,고기/구이,https://search.pstatic.net/common/?autoRotate=true&type=w560_sharpen&src=https%3A%2F%2Fldb-phinf.pstatic.net%2F20190130_207%2F1548853465700SCmlN_JPEG%2FO97Y5ynAjET-Ofu4fSU66WJy.jpeg.jpg,37.8795091,127.7405952,,,강원특별자치도 춘천시 효자동 754-21,2010-11-08,1,64.68,2022-01-19 11:20:43,강원특별자치도,춘천시,효자동,754-21
12253,스퀴즈브루어리,술집,호프/통닭,기타,https://search.pstatic.net/common/?autoRotate=true&type=w560_sharpen&src=https%3A%2F%2Fldb-phinf.pstatic.net%2F20190510_18%2F1557457229643xbn1x_JPEG%2FFdd628AWKXwXpll9rdWU0HzM.JPG.jpg,37.8698957,127.727076,,,강원특별자치도 춘천시 효자동 685-10,2018-11-13,1,488.56,2023-01-11 17:05:01,강원특별자치도,춘천시,효자동,685-10
